{"type":"FeatureCollection","features":[{"type":"Feature","properties":{"NAME":"REGIONAL TRAINING FACILITY"},"geometry":{"type":"Point","coordinates":[-122.95881837349242,45.04766506005292]}},{"type":"Feature","properties":{"NAME":"MEDFORD FIRE DEPARTMENT STATION 6"},"geometry":{"type":"Point","coordinates":[-122.81216752980141,42.316933530473186]}},{"type":"Feature","properties":{"NAME":"BAKER CITY FIRE DEPARTMENT"},"geometry":{"type":"Point","coordinates":[-117.83177310713738,44.77392345725355]}},{"type":"Feature","properties":{"NAME":"PORT ORFORD VOLUNTEER FIRE DEPARTMENT"},"geometry":{"type":"Point","coordinates":[-124.49856767154587,42.75394440472843]}},{"type":"Feature","properties":{"NAME":"NETARTS - OCEANSIDE RURAL FIRE PROTECTION DISTRICT STATION 62"},"geometry":{"type":"Point","coordinates":[-123.96925812565706,45.46027137136471]}},{"type":"Feature","properties":{"NAME":"UNITED STATES FOREST SERVICE - TILLER RANGER DISTRICT"},"geometry":{"type":"Point","coordinates":[-122.95005416421898,42.92649405250896]}},{"type":"Feature","properties":{"NAME":"FREMONT WINEMA NATIONAL FOREST FIRE CENTER"},"geometry":{"type":"Point","coordinates":[-120.35135711369658,42.17907426806134]}},{"type":"Feature","properties":{"NAME":"UMATILLA CHEMICAL DEPOT FIRE DEPARTMENT-DOD"},"geometry":{"type":"Point","coordinates":[-119.41987432682414,45.80682522530579]}},{"type":"Feature","properties":{"NAME":"OREGON AIR NATIONAL GUARD BASE FIRE AND RESCUE - PORTLAND-DOD"},"geometry":{"type":"Point","coordinates":[-122.59437664737318,45.57445623325142]}},{"type":"Feature","properties":{"NAME":"CORVALLIS FIRE DEPARTMENT STATION 5"},"geometry":{"type":"Point","coordinates":[-123.30870361090157,44.58649096012259]}},{"type":"Feature","properties":{"NAME":"PINE HOLLOW VOLUNTEER FIRE DEPARTMENT STATION 1"},"geometry":{"type":"Point","coordinates":[-121.2905291050275,45.24100386312883]}},{"type":"Feature","properties":{"NAME":"CITY OF BEND FIRE DEPARTMENT STATION 305 - NORTH FIRE STATION"},"geometry":{"type":"Point","coordinates":[-121.30632098490246,44.10154660256168]}},{"type":"Feature","properties":{"NAME":"KINGSLEY FIELD FIRE DEPARTMENT-DOD"},"geometry":{"type":"Point","coordinates":[-121.74433457574685,42.16313165099214]}},{"type":"Feature","properties":{"NAME":"FOSSIL VOLUNTEER FIRE DEPARTMENT"},"geometry":{"type":"Point","coordinates":[-120.21016952281298,45.0020087957564]}},{"type":"Feature","properties":{"NAME":"PEORIA STATION 53"},"geometry":{"type":"Point","coordinates":[-123.20489324542457,44.44769776577616]}},{"type":"Feature","properties":{"NAME":"DUFUR VOLUNTEER FIRE DEPARTMENT"},"geometry":{"type":"Point","coordinates":[-121.13041510162856,45.453233058711824]}},{"type":"Feature","properties":{"NAME":"LOSTINE VOLUNTEER FIRE DEPARTMENT"},"geometry":{"type":"Point","coordinates":[-117.4317896708871,45.486864633267]}},{"type":"Feature","properties":{"NAME":"MEDFORD FIRE AND RESCUE STATION 2"},"geometry":{"type":"Point","coordinates":[-122.88684212013608,42.32219592141361]}},{"type":"Feature","properties":{"NAME":"KENO RURAL FIRE PROTECTION DISTRICT STATION 3"},"geometry":{"type":"Point","coordinates":[-121.85039203053192,42.165312419056065]}},{"type":"Feature","properties":{"NAME":"MILTON-FREEWATER RURAL FIRE DISTRICT - NORTH STATION"},"geometry":{"type":"Point","coordinates":[-118.37521816806647,45.96608623155154]}},{"type":"Feature","properties":{"NAME":"JACKSON COUNTY FIRE DISTRICT 4 TRAIL STATION"},"geometry":{"type":"Point","coordinates":[-122.69438112522113,42.65884918530291]}},{"type":"Feature","properties":{"NAME":"HERMISTON FIRE AND EMERGENCY SERVICES STATION 2"},"geometry":{"type":"Point","coordinates":[-119.22523559708917,45.864162545816725]}},{"type":"Feature","properties":{"NAME":"AUMSVILLE RURAL FIRE PROTECTION DISTRICT - SUBSTATION 670"},"geometry":{"type":"Point","coordinates":[-122.86050629513413,44.87281907957385]}},{"type":"Feature","properties":{"NAME":"LA PINE FIRE DEPARTMENT STATION 102"},"geometry":{"type":"Point","coordinates":[-121.44330425030358,43.82400469073014]}},{"type":"Feature","properties":{"NAME":"JACKSON COUNTY FIRE DISTRICT 3 GOLD HILL STATION"},"geometry":{"type":"Point","coordinates":[-123.04223830674346,42.42897654546609]}},{"type":"Feature","properties":{"NAME":"JACKSON COUNTY FIRE DISTRICT 3 AGATE LAKE STATION"},"geometry":{"type":"Point","coordinates":[-122.77191254999035,42.42091403490062]}},{"type":"Feature","properties":{"NAME":"JACKSON COUNTY FIRE DISTRICT 3 DODGE BRIDGE STATION"},"geometry":{"type":"Point","coordinates":[-122.84572086769296,42.526491272660834]}},{"type":"Feature","properties":{"NAME":"IRRIGON RURAL FIRE PROTECTION DISTRICT"},"geometry":{"type":"Point","coordinates":[-119.4920739514646,45.89655808548753]}},{"type":"Feature","properties":{"NAME":"BOARDMAN RURAL FIRE PROTECTION DISTRICT STATION 2"},"geometry":{"type":"Point","coordinates":[-119.79073350732696,45.69721593307292]}},{"type":"Feature","properties":{"NAME":"ILLINOIS VALLEY FIRE DISTRICT STATION 5"},"geometry":{"type":"Point","coordinates":[-123.55008427418775,42.26568402543164]}},{"type":"Feature","properties":{"NAME":"ILLINOIS VALLEY FIRE DISTRICT STATION 3"},"geometry":{"type":"Point","coordinates":[-123.7040778228941,42.06749258802904]}},{"type":"Feature","properties":{"NAME":"ILLINOIS VALLEY FIRE DISTRICT OLD STATION 3"},"geometry":{"type":"Point","coordinates":[-123.70350081672653,42.06749348563941]}},{"type":"Feature","properties":{"NAME":"ILLINOIS VALLEY FIRE DISTRICT STATION 2"},"geometry":{"type":"Point","coordinates":[-123.61617004335851,42.27693681431867]}},{"type":"Feature","properties":{"NAME":"ILLINOIS VALLEY FIRE DISTRICT STATION 1"},"geometry":{"type":"Point","coordinates":[-123.6357492384153,42.159219139207885]}},{"type":"Feature","properties":{"NAME":"KEATING RURAL FIRE PROTECTION DISTRICT"},"geometry":{"type":"Point","coordinates":[-117.52429218719591,44.86189553154466]}},{"type":"Feature","properties":{"NAME":"GRESHAM FIRE AND EMERGENCY SERVICES STATION 75"},"geometry":{"type":"Point","coordinates":[-122.39369306335998,45.533318772420266]}},{"type":"Feature","properties":{"NAME":"GRESHAM FIRE AND EMERGENCY SERVICES STATION 74"},"geometry":{"type":"Point","coordinates":[-122.4658696603034,45.53394910979916]}},{"type":"Feature","properties":{"NAME":"PHILOMATH FIRE AND RESCUE STATION 202"},"geometry":{"type":"Point","coordinates":[-123.42616764192178,44.586690482485324]}},{"type":"Feature","properties":{"NAME":"THOMAS CREEK RURAL FIRE DEPARTMENT"},"geometry":{"type":"Point","coordinates":[-120.43432811817112,42.18705022252077]}},{"type":"Feature","properties":{"NAME":"SOUTHWEST POLK COUNTY RURAL FIRE PROTECTION DISTRICT STATION 110"},"geometry":{"type":"Point","coordinates":[-123.31427834590296,44.92023208251387]}},{"type":"Feature","properties":{"NAME":"UNITED STATES FOREST SERVICE - PROSPECT RANGER DISTRICT"},"geometry":{"type":"Point","coordinates":[-122.48895670832533,42.762847512155375]}},{"type":"Feature","properties":{"NAME":"UNITED STATES FOREST SERVICE - REDMOND HOTSHOTS"},"geometry":{"type":"Point","coordinates":[-121.14900182209483,44.25951502049884]}},{"type":"Feature","properties":{"NAME":"PORTLAND FIRE AND RESCUE STATION 24 - SWAN ISLAND"},"geometry":{"type":"Point","coordinates":[-122.68145835440383,45.55583114556736]}},{"type":"Feature","properties":{"NAME":"UNITED STATES FOREST SERVICE - WILD RIVERS RANGER DISTRICT"},"geometry":{"type":"Point","coordinates":[-123.29418013017046,42.43106893455728]}},{"type":"Feature","properties":{"NAME":"EUGENE FIRE STATION 6 - SHELDON STATION"},"geometry":{"type":"Point","coordinates":[-123.0742070943388,44.08024659238523]}},{"type":"Feature","properties":{"NAME":"MCKENZIE FIRE AND RESCUE STATION 3 - CAMP CREEK STATION"},"geometry":{"type":"Point","coordinates":[-122.67607641934164,44.10669313677095]}},{"type":"Feature","properties":{"NAME":"SWEET HOME FIRE AND AMBULANCE DISTRICT STATION 22"},"geometry":{"type":"Point","coordinates":[-122.68189804841354,44.40745312754254]}},{"type":"Feature","properties":{"NAME":"HINES FIRE DEPARTMENT"},"geometry":{"type":"Point","coordinates":[-119.08220788697184,43.56176085543042]}},{"type":"Feature","properties":{"NAME":"CENTRAL OREGON HELITAK - PRINEVILLE HELIBASE"},"geometry":{"type":"Point","coordinates":[-120.90199336523912,44.27969760201029]}},{"type":"Feature","properties":{"NAME":"HARRISBURG FIRE AND RESCUE STATION 41"},"geometry":{"type":"Point","coordinates":[-123.16812794142632,44.27202611288434]}},{"type":"Feature","properties":{"NAME":"PORTLAND FIRE AND RESCUE STATION 28 - ROSE CITY"},"geometry":{"type":"Point","coordinates":[-122.60573063362035,45.54150887602147]}},{"type":"Feature","properties":{"NAME":"SWEET HOME FIRE AND AMBULANCE DISTRICT STATION 21"},"geometry":{"type":"Point","coordinates":[-122.73098565212332,44.39615856316574]}},{"type":"Feature","properties":{"NAME":"CITY OF BEND FIRE DEPARTMENT STATION 302 - TUMALO FIRE STATION"},"geometry":{"type":"Point","coordinates":[-121.33159817698257,44.15001449355136]}},{"type":"Feature","properties":{"NAME":"TUALATIN VALLEY FIRE AND RESCUE STATION 23 - ROBINHOOD"},"geometry":{"type":"Point","coordinates":[-122.63851197549106,45.38701933482598]}},{"type":"Feature","properties":{"NAME":"APPLEGATE VALLEY RURAL FIRE PROTECTION DISTRICT 9 STATION 2"},"geometry":{"type":"Point","coordinates":[-123.0680596368053,42.14032353453481]}},{"type":"Feature","properties":{"NAME":"UNITED STATES FOREST SERVICE - DETROIT RANGER DISTRICT"},"geometry":{"type":"Point","coordinates":[-122.17475819099197,44.73127467772449]}},{"type":"Feature","properties":{"NAME":"NYSSA FIRE DEPARTMENT"},"geometry":{"type":"Point","coordinates":[-116.99531899156004,43.87554452462497]}},{"type":"Feature","properties":{"NAME":"MYRTLE POINT FIRE DEPARTMENT STATION 1"},"geometry":{"type":"Point","coordinates":[-124.14271869950323,43.064693362243396]}},{"type":"Feature","properties":{"NAME":"EUGENE FIRE STATION 9 - VALLEY RIVER STATION"},"geometry":{"type":"Point","coordinates":[-123.11196201357745,44.08392888966282]}},{"type":"Feature","properties":{"NAME":"BOARDMAN RURAL FIRE PROTECTION DISTRICT STATION 1"},"geometry":{"type":"Point","coordinates":[-119.70598506651882,45.82821496477051]}},{"type":"Feature","properties":{"NAME":"CITY OF HEPPNER FIRE DEPARTMENT"},"geometry":{"type":"Point","coordinates":[-119.55456760718461,45.35477358648718]}},{"type":"Feature","properties":{"NAME":"EUGENE FIRE STATION 11 - SANTA CLARA STATION"},"geometry":{"type":"Point","coordinates":[-123.13179121959072,44.100570342083934]}},{"type":"Feature","properties":{"NAME":"COLTON RURAL FIRE PROTECTION DISTRICT 70 - MAIN STATION"},"geometry":{"type":"Point","coordinates":[-122.43472976459897,45.17231356659074]}},{"type":"Feature","properties":{"NAME":"CLATSKANIE RURAL FIRE - MAIN STATION"},"geometry":{"type":"Point","coordinates":[-123.20250842601267,46.10216978901458]}},{"type":"Feature","properties":{"NAME":"MCMINNVILLE FIRE DEPARTMENT"},"geometry":{"type":"Point","coordinates":[-123.19840771303808,45.208983460346786]}},{"type":"Feature","properties":{"NAME":"MERRILL RURAL FIRE PROTECTION DISTRICT"},"geometry":{"type":"Point","coordinates":[-121.60045924056855,42.02451415116145]}},{"type":"Feature","properties":{"NAME":"WEST VALLEY FIRE DISTRICT"},"geometry":{"type":"Point","coordinates":[-123.47642762125517,45.0813926611875]}},{"type":"Feature","properties":{"NAME":"CITY OF BEND FIRE DEPARTMENT STATION 301 - WEST FIRE STATION"},"geometry":{"type":"Point","coordinates":[-121.32911027166321,44.04852427481906]}},{"type":"Feature","properties":{"NAME":"AZALEA RURAL FIRE PROTECTION DISTRICT"},"geometry":{"type":"Point","coordinates":[-123.25948003285573,42.7962926097526]}},{"type":"Feature","properties":{"NAME":"KENO RURAL FIRE PROTECTION DISTRICT STATION 1 - HEADQUARTERS"},"geometry":{"type":"Point","coordinates":[-121.9239082016394,42.13375298119316]}},{"type":"Feature","properties":{"NAME":"PINE VALLEY RURAL FIRE PROTECTION DISTRICT"},"geometry":{"type":"Point","coordinates":[-117.11018087996138,44.87706386866382]}},{"type":"Feature","properties":{"NAME":"HUNTINGTON VOLUNTEER FIRE DEPARTMENT"},"geometry":{"type":"Point","coordinates":[-117.26766930276334,44.35037411810912]}},{"type":"Feature","properties":{"NAME":"EAGLE VALLEY RURAL FIRE PROTECTION DISTRICT"},"geometry":{"type":"Point","coordinates":[-117.16767828466861,44.76941570091889]}},{"type":"Feature","properties":{"NAME":"POWDER RIVER / MOSQUITO FLAT NORTH RURAL FIRE PROTECTION DISTRICT"},"geometry":{"type":"Point","coordinates":[-118.17338855020768,44.72046945689309]}},{"type":"Feature","properties":{"NAME":"PHILOMATH FIRE AND RESCUE STATION 201"},"geometry":{"type":"Point","coordinates":[-123.37173936104577,44.540583983654386]}},{"type":"Feature","properties":{"NAME":"APPLEGATE VALLEY RURAL FIRE PROTECTION DISTRICT 9 STATION 1"},"geometry":{"type":"Point","coordinates":[-123.17067713593894,42.256812348608875]}},{"type":"Feature","properties":{"NAME":"APPLEGATE VALLEY RURAL FIRE PROTECTION DISTRICT 9 STATION 3 - HEADQUARTERS"},"geometry":{"type":"Point","coordinates":[-123.04700747449476,42.22326352116718]}},{"type":"Feature","properties":{"NAME":"APPLEGATE VALLEY RURAL FIRE PROTECTION DISTRICT 9 STATION 4"},"geometry":{"type":"Point","coordinates":[-123.25967746301717,42.30301347899164]}},{"type":"Feature","properties":{"NAME":"WILLIAMS RURAL FIRE PROTECTION DISTRICT"},"geometry":{"type":"Point","coordinates":[-123.27359704162718,42.21781408551419]}},{"type":"Feature","properties":{"NAME":"EUGENE FIRE STATION 7 - BETHEL STATION"},"geometry":{"type":"Point","coordinates":[-123.1778584365521,44.08435217098842]}},{"type":"Feature","properties":{"NAME":"TANGENT RURAL FIRE DEPARTMENT"},"geometry":{"type":"Point","coordinates":[-123.10771682880055,44.541463467731795]}},{"type":"Feature","properties":{"NAME":"ELKTON RURAL FIRE PROTECTION DISTRICT"},"geometry":{"type":"Point","coordinates":[-123.56318908472228,43.63406458282148]}},{"type":"Feature","properties":{"NAME":"TILLER RURAL FIRE PROTECTION DISTRICT - HEADQUARTERS"},"geometry":{"type":"Point","coordinates":[-122.95364764802675,42.92855046824903]}},{"type":"Feature","properties":{"NAME":"JACKSON COUNTY FIRE DISTRICT 3 WHITE CITY STATION - HEADQUARTERS"},"geometry":{"type":"Point","coordinates":[-122.8566042196827,42.43766350142014]}},{"type":"Feature","properties":{"NAME":"PHOENIX FIRE DEPARTMENT"},"geometry":{"type":"Point","coordinates":[-122.81698063809587,42.274423539166264]}},{"type":"Feature","properties":{"NAME":"APPLEGATE VALLEY RURAL FIRE PROTECTION DISTRICT 9 STATION 5"},"geometry":{"type":"Point","coordinates":[-122.99394749905136,42.292790554736975]}},{"type":"Feature","properties":{"NAME":"UNION RURAL FIRE PROTECTION DISTRICT"},"geometry":{"type":"Point","coordinates":[-117.86065156466547,45.208153091653095]}},{"type":"Feature","properties":{"NAME":"EUGENE FIRE STATION 8 - DANEBO STATION"},"geometry":{"type":"Point","coordinates":[-123.158417851546,44.067292535467985]}},{"type":"Feature","properties":{"NAME":"SCIO RURAL FIRE PROTECTION DISTRICT STATION 92"},"geometry":{"type":"Point","coordinates":[-122.89966294745055,44.635594785536924]}},{"type":"Feature","properties":{"NAME":"SWEET HOME FIRE AND AMBULANCE DISTRICT STATION 24"},"geometry":{"type":"Point","coordinates":[-122.44337156763241,44.398294324556275]}},{"type":"Feature","properties":{"NAME":"ASHLAND FIRE AND RESCUE STATION 1"},"geometry":{"type":"Point","coordinates":[-122.70845238951928,42.19404356837724]}},{"type":"Feature","properties":{"NAME":"CORVALLIS FIRE DEPARTMENT STATION 6"},"geometry":{"type":"Point","coordinates":[-123.25113637070268,44.628604189757596]}},{"type":"Feature","properties":{"NAME":"NEWBERG FIRE DEPARTMENT STATION 20"},"geometry":{"type":"Point","coordinates":[-122.97544942795585,45.299263323731246]}},{"type":"Feature","properties":{"NAME":"CITY OF BEND FIRE DEPARTMENT STATION 304 - EAST FIRE STATION"},"geometry":{"type":"Point","coordinates":[-121.24280006448647,44.06733193386886]}},{"type":"Feature","properties":{"NAME":"SCIO RURAL FIRE PROTECTION DISTRICT STATION 91"},"geometry":{"type":"Point","coordinates":[-122.84695199839678,44.70332443083569]}},{"type":"Feature","properties":{"NAME":"SUMNER RURAL FIRE PROTECTION DISTRICT STATION 1"},"geometry":{"type":"Point","coordinates":[-124.14878834692477,43.281012909555635]}},{"type":"Feature","properties":{"NAME":"NORTH BAY RURAL FIRE PROTECTION DISTRICT"},"geometry":{"type":"Point","coordinates":[-124.21238876929627,43.43454306137323]}},{"type":"Feature","properties":{"NAME":"UPPER CHETCO RURAL FIRE PROTECTION DISTRICT"},"geometry":{"type":"Point","coordinates":[-124.20490636865966,42.08660237063807]}},{"type":"Feature","properties":{"NAME":"SIUSLAW VALLEY FIRE AND RESCUE STATION 5 - CANARY STATION"},"geometry":{"type":"Point","coordinates":[-124.02778761581098,43.92873439289305]}},{"type":"Feature","properties":{"NAME":"SOUTH LANE COUNTY FIRE AND RESCUE STATION 22"},"geometry":{"type":"Point","coordinates":[-123.03575164660852,43.83467748856954]}},{"type":"Feature","properties":{"NAME":"SIUSLAW VALLEY FIRE AND RESCUE STATION 2 - OLD TOWN STATION"},"geometry":{"type":"Point","coordinates":[-124.10704829918112,43.967812967205454]}},{"type":"Feature","properties":{"NAME":"SOUTH LANE COUNTY FIRE AND RESCUE STATION 21"},"geometry":{"type":"Point","coordinates":[-123.06607978500305,43.789684584270105]}},{"type":"Feature","properties":{"NAME":"MONROE RURAL FIRE PROTECTION DISTRICT STATION 1"},"geometry":{"type":"Point","coordinates":[-123.30034846051188,44.31462424347026]}},{"type":"Feature","properties":{"NAME":"FAIRVIEW RURAL FIRE PROTECTION DISTRICT"},"geometry":{"type":"Point","coordinates":[-124.0776981182594,43.21611321704944]}},{"type":"Feature","properties":{"NAME":"NORTH BEND FIRE STATION 1"},"geometry":{"type":"Point","coordinates":[-124.22656756826728,43.408223134997904]}},{"type":"Feature","properties":{"NAME":"GASTON RURAL FIRE PROTECTION DISTRICT"},"geometry":{"type":"Point","coordinates":[-123.13863825094955,45.43695148724978]}},{"type":"Feature","properties":{"NAME":"HAUSER RURAL FIRE PROTECTION DISTRICT"},"geometry":{"type":"Point","coordinates":[-124.21317792736804,43.50180405900595]}},{"type":"Feature","properties":{"NAME":"POWERS VOLUNTEER FIRE AND AMBULANCE"},"geometry":{"type":"Point","coordinates":[-124.07064776059937,42.88176381993807]}},{"type":"Feature","properties":{"NAME":"ADRIAN FIRE DEPARTMENT"},"geometry":{"type":"Point","coordinates":[-117.07211054781662,43.73892454428006]}},{"type":"Feature","properties":{"NAME":"UNITED STATES FOREST SERVICE - ASHLAND RANGER DISTRICT"},"geometry":{"type":"Point","coordinates":[-122.66861348405791,42.18299221899579]}},{"type":"Feature","properties":{"NAME":"LAKESIDE RURAL FIRE PROTECTION DISTRICT"},"geometry":{"type":"Point","coordinates":[-124.17451830970727,43.57621422484989]}},{"type":"Feature","properties":{"NAME":"SOUTH LANE COUNTY FIRE AND RESCUE STATION 24"},"geometry":{"type":"Point","coordinates":[-123.14092920497049,43.9153471721058]}},{"type":"Feature","properties":{"NAME":"UNITED STATES FOREST SERVICE - HEBO RANGER DISTRICT"},"geometry":{"type":"Point","coordinates":[-123.85853163384185,45.22695110033722]}},{"type":"Feature","properties":{"NAME":"UNITED STATES FOREST SERVICE - HOOD RIVER RANGER DISTRICT"},"geometry":{"type":"Point","coordinates":[-121.56947552074115,45.53394340809947]}},{"type":"Feature","properties":{"NAME":"MCKENZIE FIRE AND RESCUE STATION 2 - CAMP CREEK STATION"},"geometry":{"type":"Point","coordinates":[-122.86782864736914,44.067623000594196]}},{"type":"Feature","properties":{"NAME":"KENO RURAL FIRE PROTECTION DISTRICT STATION 2"},"geometry":{"type":"Point","coordinates":[-121.86737920767597,42.045310126992185]}},{"type":"Feature","properties":{"NAME":"YACHATS RURAL FIRE PROTECTION DISTRICT - SOUTH STATION"},"geometry":{"type":"Point","coordinates":[-124.10473780614794,44.31114324947255]}},{"type":"Feature","properties":{"NAME":"DOUGLAS FOREST PROTECTIVE ASSOCIATION - NORTH UNIT"},"geometry":{"type":"Point","coordinates":[-123.31872734156795,43.65830423913002]}},{"type":"Feature","properties":{"NAME":"ONTARIO FIRE AND RESCUE"},"geometry":{"type":"Point","coordinates":[-116.96876868534851,44.02361398083384]}},{"type":"Feature","properties":{"NAME":"BROOKINGS FIRE AND RESCUE"},"geometry":{"type":"Point","coordinates":[-124.28744844723867,42.055375172497804]}},{"type":"Feature","properties":{"NAME":"MEDFORD FIRE DEPARTMENT STATION 5"},"geometry":{"type":"Point","coordinates":[-122.85291848230511,42.3508242347904]}},{"type":"Feature","properties":{"NAME":"UNITED STATES FOREST SERVICE - SISTERS RANGER DISTRICT"},"geometry":{"type":"Point","coordinates":[-121.55426927177092,44.291680362599756]}},{"type":"Feature","properties":{"NAME":"CAMAS VALLEY FIRE DEPARTMENT STATION 2"},"geometry":{"type":"Point","coordinates":[-123.67821393307617,43.02626943604086]}},{"type":"Feature","properties":{"NAME":"WOLF CREEK RURAL FIRE PROTECTION DISTRICT"},"geometry":{"type":"Point","coordinates":[-123.3944187197643,42.69067382206053]}},{"type":"Feature","properties":{"NAME":"SOUTHWEST POLK COUNTY RURAL FIRE PROTECTION DISTRICT STATION 130"},"geometry":{"type":"Point","coordinates":[-123.22897045455356,44.931440476784054]}},{"type":"Feature","properties":{"NAME":"POLK COUNTY FIRE DISTRICT 1 STATION 70 - PEDEE"},"geometry":{"type":"Point","coordinates":[-123.41420040142269,44.753630879098445]}},{"type":"Feature","properties":{"NAME":"POLK COUNTY FIRE DISTRICT 1 STATION 40 - BUENA VISTA"},"geometry":{"type":"Point","coordinates":[-123.151828477973,44.768486087017024]}},{"type":"Feature","properties":{"NAME":"GRESHAM FIRE AND EMERGENCY SERVICES STATION 72"},"geometry":{"type":"Point","coordinates":[-122.39951296128807,45.50177212596062]}},{"type":"Feature","properties":{"NAME":"SHERIDAN FIRE DISTRICT SUBSTATION - BALLSTON"},"geometry":{"type":"Point","coordinates":[-123.3221138059094,45.06633939324924]}},{"type":"Feature","properties":{"NAME":"KLAMATH FALLS INTERAGENCY FIRE CENTER"},"geometry":{"type":"Point","coordinates":[-121.73784954583058,42.17203779180813]}},{"type":"Feature","properties":{"NAME":"POLK COUNTY FIRE DISTRICT 1 STATION 80"},"geometry":{"type":"Point","coordinates":[-123.33527812548786,44.75480863729217]}},{"type":"Feature","properties":{"NAME":"MOSIER RURAL FIRE DISTRICT STATION 2"},"geometry":{"type":"Point","coordinates":[-121.33503990659221,45.66616531756195]}},{"type":"Feature","properties":{"NAME":"GATES RURAL FIRE PROTECTION DISTRICT"},"geometry":{"type":"Point","coordinates":[-122.41628023113853,44.75507105913022]}},{"type":"Feature","properties":{"NAME":"SUBLIMITY FIRE DISTRICT STATION 52 - SUBSTATION"},"geometry":{"type":"Point","coordinates":[-122.71964144574764,44.883990738282414]}},{"type":"Feature","properties":{"NAME":"COLUMBIA RIVER FIRE AND RESCUE - FAIRGROUNDS STATION"},"geometry":{"type":"Point","coordinates":[-122.87210418305956,45.84902519832485]}},{"type":"Feature","properties":{"NAME":"MONITOR RURAL FIRE PROTECTION DISTRICT - YODER STATION"},"geometry":{"type":"Point","coordinates":[-122.68175233418816,45.14194094208003]}},{"type":"Feature","properties":{"NAME":"PENDLETON CITY FIRE AND AMBULANCE STATION 3 - AIRPORT"},"geometry":{"type":"Point","coordinates":[-118.84264683224869,45.68917345149495]}},{"type":"Feature","properties":{"NAME":"UMATILLA TRIBAL FIRE DEPARTMENT"},"geometry":{"type":"Point","coordinates":[-118.67053747449089,45.666254023167916]}},{"type":"Feature","properties":{"NAME":"SAINT PAUL FIRE DISTRICT - SUBSTATION"},"geometry":{"type":"Point","coordinates":[-122.93898451482319,45.20144201033115]}},{"type":"Feature","properties":{"NAME":"CHILOQUIN AGENCY - LAKE FIRE DISTRICT STATION 2"},"geometry":{"type":"Point","coordinates":[-121.9279296018985,42.54832359492102]}},{"type":"Feature","properties":{"NAME":"MID-COLUMBIA FIRE AND RESCUE"},"geometry":{"type":"Point","coordinates":[-121.20503858776374,45.60703308647358]}},{"type":"Feature","properties":{"NAME":"SEASIDE FIRE AND RESCUE"},"geometry":{"type":"Point","coordinates":[-123.92000984582371,45.992602339099435]}},{"type":"Feature","properties":{"NAME":"JEFFERSON RURAL FIRE PROTECTION DISTRICT - MILLERSBURG"},"geometry":{"type":"Point","coordinates":[-123.07665718869329,44.682232486774616]}},{"type":"Feature","properties":{"NAME":"NORTH LINCOLN FIRE AND RESCUE DISTRICT 1 STATION 1600 - TAFT"},"geometry":{"type":"Point","coordinates":[-124.01874902443983,44.932361989748344]}},{"type":"Feature","properties":{"NAME":"TUALATIN VALLEY FIRE AND RESCUE STATION 56 - ELLIGSEN ROAD"},"geometry":{"type":"Point","coordinates":[-122.76392699382639,45.33600155216872]}},{"type":"Feature","properties":{"NAME":"MOUNT ANGEL FIRE DISTRICT"},"geometry":{"type":"Point","coordinates":[-122.79978843317937,45.06998223733909]}},{"type":"Feature","properties":{"NAME":"RUFUS VOLUNTEER FIRE DEPARTMENT AND AMBULANCE SERVICE"},"geometry":{"type":"Point","coordinates":[-120.73511111557609,45.6932888754667]}},{"type":"Feature","properties":{"NAME":"PORTLAND FIRE AND RESCUE STATION 1 - DOWNTOWN"},"geometry":{"type":"Point","coordinates":[-122.6707185807912,45.52189470893183]}},{"type":"Feature","properties":{"NAME":"LEXINGTON VOLUNTEER FIRE DEPARTMENT"},"geometry":{"type":"Point","coordinates":[-119.68518055948299,45.44579451498289]}},{"type":"Feature","properties":{"NAME":"MIST-BIRKENFELD RURAL FIRE PROTECTION DISTRICT - PETERSON STATION"},"geometry":{"type":"Point","coordinates":[-123.16566290056657,45.9470650623254]}},{"type":"Feature","properties":{"NAME":"LANE COUNTY FIRE DISTRICT 1 STATION 18-2"},"geometry":{"type":"Point","coordinates":[-123.38016362628512,43.94972087377052]}},{"type":"Feature","properties":{"NAME":"LANE COUNTY FIRE DISTRICT 1 STATION 11-4"},"geometry":{"type":"Point","coordinates":[-123.44651871250112,44.05950113134552]}},{"type":"Feature","properties":{"NAME":"OLNEY-WALLUSKI VOLUNTEER FIRE AND RESCUE DISTRICT"},"geometry":{"type":"Point","coordinates":[-123.80410105456461,46.145757217851646]}},{"type":"Feature","properties":{"NAME":"UNITED STATES FOREST SERVICE - DIAMOND LAKE RANGER DISTRICT"},"geometry":{"type":"Point","coordinates":[-122.41363148980196,43.26170673526761]}},{"type":"Feature","properties":{"NAME":"SUTHERLIN FIRE DEPARTMENT - CALAPOOIA STATION"},"geometry":{"type":"Point","coordinates":[-123.35488213060347,43.39055621566947]}},{"type":"Feature","properties":{"NAME":"NEWPORT FIRE DEPARTMENT STATION 10"},"geometry":{"type":"Point","coordinates":[-124.06289048001986,44.69012192045563]}},{"type":"Feature","properties":{"NAME":"GOLD BEACH VOLUNTEER FIRE DEPARTMENT"},"geometry":{"type":"Point","coordinates":[-124.42105371664944,42.410534364163865]}},{"type":"Feature","properties":{"NAME":"MIST-BIRKENFELD RURAL FIRE PROTECTION DISTRICT"},"geometry":{"type":"Point","coordinates":[-123.3096728048579,46.01308699856889]}},{"type":"Feature","properties":{"NAME":"DEPOE BAY RURAL FIRE PROTECTION DISTRICT STATION 2400 - OTTER ROCK"},"geometry":{"type":"Point","coordinates":[-124.05553084049566,44.74682335899415]}},{"type":"Feature","properties":{"NAME":"STAYTON RURAL FIRE PROTECTION DISTRICT - MARION STATION"},"geometry":{"type":"Point","coordinates":[-122.93835954558996,44.750216640539875]}},{"type":"Feature","properties":{"NAME":"GOSHEN RURAL FIRE PROTECTION DISTRICT"},"geometry":{"type":"Point","coordinates":[-123.01079320589677,43.99558624077872]}},{"type":"Feature","properties":{"NAME":"DOUGLAS COUNTY FIRE DISTRICT 2 - HEADQUARTERS"},"geometry":{"type":"Point","coordinates":[-123.35353391051898,43.22465110276997]}},{"type":"Feature","properties":{"NAME":"GRESHAM FIRE AND EMERGENCY SERVICES STATION 71"},"geometry":{"type":"Point","coordinates":[-122.43736656110232,45.507542841271075]}},{"type":"Feature","properties":{"NAME":"BAKER RURAL FIRE PROTECTION DISTRICT - POCAHONTAS ROAD"},"geometry":{"type":"Point","coordinates":[-117.88959525149637,44.79563887349094]}},{"type":"Feature","properties":{"NAME":"RURAL/METRO FIRE DEPARTMENT STATION 6"},"geometry":{"type":"Point","coordinates":[-123.4177736278445,42.446892659558486]}},{"type":"Feature","properties":{"NAME":"RURAL/METRO FIRE DEPARTMENT STATION 4"},"geometry":{"type":"Point","coordinates":[-123.47557896138079,42.38300078227225]}},{"type":"Feature","properties":{"NAME":"RURAL/METRO FIRE DEPARTMENT STATION 1"},"geometry":{"type":"Point","coordinates":[-123.34667800429057,42.40884087719264]}},{"type":"Feature","properties":{"NAME":"HAINES FIRE PROTECTION DISTRICT - MUDDY CREEK ROAD"},"geometry":{"type":"Point","coordinates":[-118.02123862159964,44.93679879088356]}},{"type":"Feature","properties":{"NAME":"MARION COUNTY FIRE DISTRICT 1 STATION 5 - BROOKS"},"geometry":{"type":"Point","coordinates":[-122.9579477279633,45.04734216071642]}},{"type":"Feature","properties":{"NAME":"MARION COUNTY FIRE DISTRICT 1 STATION 8 - CHEMEKETA"},"geometry":{"type":"Point","coordinates":[-122.97853514114254,44.9770243194836]}},{"type":"Feature","properties":{"NAME":"ELGIN RURAL FIRE PROTECTION DISTRICT"},"geometry":{"type":"Point","coordinates":[-117.91849248802588,45.56422259444464]}},{"type":"Feature","properties":{"NAME":"UNION CITY FIRE DEPARTMENT"},"geometry":{"type":"Point","coordinates":[-117.86065156446504,45.2081557278835]}},{"type":"Feature","properties":{"NAME":"SCAPPOOSE RURAL FIRE PROTECTION DISTRICT - HOLBROOK"},"geometry":{"type":"Point","coordinates":[-122.87616066085549,45.66730781983397]}},{"type":"Feature","properties":{"NAME":"SCAPPOOSE RURAL FIRE PROTECTION DISTRICT - CHAPMAN"},"geometry":{"type":"Point","coordinates":[-122.99597201064006,45.824648861460815]}},{"type":"Feature","properties":{"NAME":"SCAPPOOSE RURAL FIRE PROTECTION DISTRICT - MARINA"},"geometry":{"type":"Point","coordinates":[-122.85989147723805,45.729537413135766]}},{"type":"Feature","properties":{"NAME":"BANKS FIRE PROTECTION DISTRICT 13 - HEADQUARTERS"},"geometry":{"type":"Point","coordinates":[-123.11394582155494,45.61740410559682]}},{"type":"Feature","properties":{"NAME":"BANDON RURAL FIRE PROTECTION DISTRICT - RANDOLPH STATION"},"geometry":{"type":"Point","coordinates":[-124.36321982722006,43.18569729060757]}},{"type":"Feature","properties":{"NAME":"CANNON BEACH RURAL FIRE PROTECTION DISTRICT"},"geometry":{"type":"Point","coordinates":[-123.9603738950537,45.888065171872505]}},{"type":"Feature","properties":{"NAME":"CLATSKANIE RURAL FIRE - QUINCY STATION"},"geometry":{"type":"Point","coordinates":[-123.15210420477115,46.15646524098227]}},{"type":"Feature","properties":{"NAME":"WARRENTON FIRE DEPARTMENT"},"geometry":{"type":"Point","coordinates":[-123.92577895421965,46.16358061002141]}},{"type":"Feature","properties":{"NAME":"DOUGLAS COUNTY FIRE DISTRICT 2 STATION 8"},"geometry":{"type":"Point","coordinates":[-123.2806088372,43.02286912102954]}},{"type":"Feature","properties":{"NAME":"IDANHA-DETROIT RURAL FIRE PROTECTION DISTRICT - SUBSTATION"},"geometry":{"type":"Point","coordinates":[-122.15139128836151,44.735948270011654]}},{"type":"Feature","properties":{"NAME":"COLUMBIA RIVER FIRE AND RESCUE - FERNHILL STATION"},"geometry":{"type":"Point","coordinates":[-122.99546844614567,46.05743274500416]}},{"type":"Feature","properties":{"NAME":"COLUMBIA RIVER FIRE AND RESCUE - RAINIER STATION"},"geometry":{"type":"Point","coordinates":[-122.93716158407248,46.088755991670936]}},{"type":"Feature","properties":{"NAME":"COLUMBIA RIVER FIRE AND RESCUE - SAINT HELENS STATION"},"geometry":{"type":"Point","coordinates":[-122.81031432151163,45.86133287824544]}},{"type":"Feature","properties":{"NAME":"COLUMBIA RIVER FIRE AND RESCUE - DEER ISLAND STATION"},"geometry":{"type":"Point","coordinates":[-122.8727192477187,45.93630242724557]}},{"type":"Feature","properties":{"NAME":"LOWELL VOLUNTEER FIRE PROTECTION DISTRICT STATION 1"},"geometry":{"type":"Point","coordinates":[-122.7815879592568,43.922634309150936]}},{"type":"Feature","properties":{"NAME":"TUALATIN VALLEY FIRE AND RESCUE STATION 359 - SUNSET"},"geometry":{"type":"Point","coordinates":[-122.62523830848778,45.35936294039204]}},{"type":"Feature","properties":{"NAME":"TUALATIN VALLEY FIRE AND RESCUE STATION 358 - ROSEMONT"},"geometry":{"type":"Point","coordinates":[-122.66538804824765,45.38244307519546]}},{"type":"Feature","properties":{"NAME":"TUALATIN VALLEY FIRE AND RESCUE STATION 52 - WILSONVILLE"},"geometry":{"type":"Point","coordinates":[-122.77848827120518,45.30413405390576]}},{"type":"Feature","properties":{"NAME":"TUALATIN VALLEY FIRE AND RESCUE STATION 59 - WILLAMETTE"},"geometry":{"type":"Point","coordinates":[-122.65505830016271,45.34455377596359]}},{"type":"Feature","properties":{"NAME":"TUALATIN VALLEY FIRE AND RESCUE STATION 58 - WEST LINN BOLTON"},"geometry":{"type":"Point","coordinates":[-122.6221983131196,45.37071293861788]}},{"type":"Feature","properties":{"NAME":"TUALATIN VALLEY FIRE AND RESCUE STATION 57 - MOUNTAIN ROAD"},"geometry":{"type":"Point","coordinates":[-122.7080194816985,45.34480376801196]}},{"type":"Feature","properties":{"NAME":"TUALATIN VALLEY FIRE AND RESCUE STATION 66 - BROCKMAN ROAD"},"geometry":{"type":"Point","coordinates":[-122.82040830417095,45.45452401436565]}},{"type":"Feature","properties":{"NAME":"CROOK COUNTY FIRE AND RESCUE - JUNIPER CANYON"},"geometry":{"type":"Point","coordinates":[-120.7536585046508,44.193084194396164]}},{"type":"Feature","properties":{"NAME":"TUALATIN VALLEY FIRE AND RESCUE STATION 61 - BUTNER ROAD"},"geometry":{"type":"Point","coordinates":[-122.81846832117736,45.513893715466]}},{"type":"Feature","properties":{"NAME":"TUALATIN VALLEY FIRE AND RESCUE STATION 33 - SHERWOOD"},"geometry":{"type":"Point","coordinates":[-122.83571892152547,45.358622594062254]}},{"type":"Feature","properties":{"NAME":"CENTRAL OREGON COAST FIRE AND RESCUE DISTRICT 7 STATION 7200"},"geometry":{"type":"Point","coordinates":[-124.06259784145126,44.42718468341835]}},{"type":"Feature","properties":{"NAME":"TUALATIN VALLEY FIRE AND RESCUE STATION 363"},"geometry":{"type":"Point","coordinates":[-122.8604095457853,45.608473443647114]}},{"type":"Feature","properties":{"NAME":"PORTLAND FIRE AND RESCUE STATION 3 - NORTHWEST PEARL DISTRICT"},"geometry":{"type":"Point","coordinates":[-122.68872834603688,45.528864262197985]}},{"type":"Feature","properties":{"NAME":"REDMOND FIRE AND RESCUE STATION 401 - HEADQUARTERS"},"geometry":{"type":"Point","coordinates":[-121.17225675968898,44.27969400532497]}},{"type":"Feature","properties":{"NAME":"TUALATIN VALLEY FIRE AND RESCUE STATION 60 - CORNELL ROAD"},"geometry":{"type":"Point","coordinates":[-122.7656796115083,45.52911378131495]}},{"type":"Feature","properties":{"NAME":"FOREST GROVE FIRE AND RESCUE - HEADQUARTERS"},"geometry":{"type":"Point","coordinates":[-123.10979827748257,45.518633675381885]}},{"type":"Feature","properties":{"NAME":"MITCHELL VOLUNTEER FIRE DEPARTMENT"},"geometry":{"type":"Point","coordinates":[-120.15265719865363,44.565842546978516]}},{"type":"Feature","properties":{"NAME":"PORTLAND FIRE AND RESCUE STATION 12 - SUMNER"},"geometry":{"type":"Point","coordinates":[-122.5740499674499,45.55477458454601]}},{"type":"Feature","properties":{"NAME":"PORTLAND FIRE AND RESCUE STATION 16 - SYLVAN"},"geometry":{"type":"Point","coordinates":[-122.73593320689889,45.51076460175966]}},{"type":"Feature","properties":{"NAME":"DUNDEE FIRE DEPARTMENT"},"geometry":{"type":"Point","coordinates":[-123.01108784740205,45.27713305571691]}},{"type":"Feature","properties":{"NAME":"PORTLAND FIRE AND RESCUE STATION 6 - NORTHWEST INDUSTRIAL"},"geometry":{"type":"Point","coordinates":[-122.70599953757764,45.548873740182785]}},{"type":"Feature","properties":{"NAME":"CROOK COUNTY FIRE AND RESCUE - MAIN STATION"},"geometry":{"type":"Point","coordinates":[-120.84540921860845,44.30470487942547]}},{"type":"Feature","properties":{"NAME":"PORTLAND FIRE AND RESCUE STATION 13 - LLOYD CENTER"},"geometry":{"type":"Point","coordinates":[-122.6558383517864,45.53411607308072]}},{"type":"Feature","properties":{"NAME":"TUALATIN VALLEY FIRE AND RESCUE STATION 68 - OAK HILLS"},"geometry":{"type":"Point","coordinates":[-122.82844832791723,45.54338287521732]}},{"type":"Feature","properties":{"NAME":"PORTLAND FIRE AND RESCUE STATION 5 - HILLSDALE"},"geometry":{"type":"Point","coordinates":[-122.69340075941352,45.48039281105261]}},{"type":"Feature","properties":{"NAME":"PORTLAND FIRE AND RESCUE STATION 4 - PORTLAND STATE UNIVERSITY"},"geometry":{"type":"Point","coordinates":[-122.6827683410311,45.509724267502484]}},{"type":"Feature","properties":{"NAME":"PORTLAND FIRE AND RESCUE STATION 31 - ROCKWOOD"},"geometry":{"type":"Point","coordinates":[-122.48514837069779,45.50862943209563]}},{"type":"Feature","properties":{"NAME":"NORTH LINCOLN FIRE AND RESCUE DISTRICT 1 STATION 1300 - OTIS"},"geometry":{"type":"Point","coordinates":[-123.94714921492928,45.0244839587924]}},{"type":"Feature","properties":{"NAME":"HILLSBORO FIRE AND RESCUE STATION 2 - BROOKWOOD"},"geometry":{"type":"Point","coordinates":[-122.93064079534963,45.503044618199]}},{"type":"Feature","properties":{"NAME":"PORTLAND FIRE AND RESCUE STATION 18 - MULTNOMAH VILLAGE"},"geometry":{"type":"Point","coordinates":[-122.70747832430571,45.461934275333]}},{"type":"Feature","properties":{"NAME":"PORTLAND FIRE AND RESCUE STATION 30 GATEWAY"},"geometry":{"type":"Point","coordinates":[-122.52587837242608,45.53748416697323]}},{"type":"Feature","properties":{"NAME":"PORTLAND FIRE AND RESCUE STATION 11 - LENTS"},"geometry":{"type":"Point","coordinates":[-122.56893907289843,45.48110305299654]}},{"type":"Feature","properties":{"NAME":"PORTLAND FIRE AND RESCUE STATION 15 - SOUTHWEST HILLS"},"geometry":{"type":"Point","coordinates":[-122.6988822377432,45.50902153373969]}},{"type":"Feature","properties":{"NAME":"PORTLAND FIRE AND RESCUE STATION 22 - SAINT JOHNS"},"geometry":{"type":"Point","coordinates":[-122.75689840866649,45.59004545908753]}},{"type":"Feature","properties":{"NAME":"PORTLAND FIRE AND RESCUE STATION 17 - HAYDEN ISLAND"},"geometry":{"type":"Point","coordinates":[-122.67576808066858,45.609702578977476]}},{"type":"Feature","properties":{"NAME":"PORTLAND FIRE AND RESCUE STATION 10 - BURLINGAME"},"geometry":{"type":"Point","coordinates":[-122.68294471640385,45.463435150838045]}},{"type":"Feature","properties":{"NAME":"PORTLAND FIRE AND RESCUE STATION 26 - UNIVERSITY OF PORTLAND"},"geometry":{"type":"Point","coordinates":[-122.72260147390385,45.58218397277177]}},{"type":"Feature","properties":{"NAME":"PORTLAND FIRE AND RESCUE STATION 25 - WOODSTOCK"},"geometry":{"type":"Point","coordinates":[-122.60873224616934,45.49155701446462]}},{"type":"Feature","properties":{"NAME":"PORTLAND FIRE AND RESCUE STATION 23 - LOWER EASTSIDE"},"geometry":{"type":"Point","coordinates":[-122.65259834407479,45.50185458625093]}},{"type":"Feature","properties":{"NAME":"PORTLAND FIRE AND RESCUE STATION 29 - GILBERT"},"geometry":{"type":"Point","coordinates":[-122.52645835644077,45.476514296721]}},{"type":"Feature","properties":{"NAME":"PORTLAND FIRE AND RESCUE STATION 7 - MILL PARK"},"geometry":{"type":"Point","coordinates":[-122.53720969704705,45.512562987170384]}},{"type":"Feature","properties":{"NAME":"PORTLAND FIRE AND RESCUE STATION 19 - MOUNT TABOR"},"geometry":{"type":"Point","coordinates":[-122.58758836013877,45.52317459053954]}},{"type":"Feature","properties":{"NAME":"PORTLAND FIRE AND RESCUE STATION 8 - KENTON"},"geometry":{"type":"Point","coordinates":[-122.68058835975802,45.57502705273732]}},{"type":"Feature","properties":{"NAME":"PORTLAND FIRE AND RESCUE STATION 14 - VERNON"},"geometry":{"type":"Point","coordinates":[-122.64573988124242,45.56305370275195]}},{"type":"Feature","properties":{"NAME":"PORTLAND FIRE AND RESCUE STATION 20 - SELLWOOD / MORELAND"},"geometry":{"type":"Point","coordinates":[-122.64213321053505,45.47432291513947]}},{"type":"Feature","properties":{"NAME":"PORTLAND FIRE AND RESCUE STATION 9 - HAWTHORNE"},"geometry":{"type":"Point","coordinates":[-122.62239930207775,45.51062307666851]}},{"type":"Feature","properties":{"NAME":"PORTLAND FIRE AND RESCUE STATION 2 - PARKROSE/PORTLAND AIRPORT"},"geometry":{"type":"Point","coordinates":[-122.53695822398893,45.55767296106452]}},{"type":"Feature","properties":{"NAME":"TUALATIN VALLEY FIRE AND RESCUE STATION 67 - FARMINGTON ROAD"},"geometry":{"type":"Point","coordinates":[-122.81904831433597,45.48649372245582]}},{"type":"Feature","properties":{"NAME":"WINSTON DILLARD RURAL FIRE PROTECTION DISTRICT"},"geometry":{"type":"Point","coordinates":[-123.41333706073195,43.11969675206444]}},{"type":"Feature","properties":{"NAME":"SALEM FIRE DEPARTMENT STATION 3"},"geometry":{"type":"Point","coordinates":[-122.99741885294414,44.95278351776504]}},{"type":"Feature","properties":{"NAME":"ALBANY FIRE DEPARTMENT STATION 2"},"geometry":{"type":"Point","coordinates":[-123.10002623985166,44.6097433800671]}},{"type":"Feature","properties":{"NAME":"CHARLESTON RURAL FIRE PROTECTION DISTRICT - CROWN POINT STATION"},"geometry":{"type":"Point","coordinates":[-124.30663808228086,43.33499303754642]}},{"type":"Feature","properties":{"NAME":"JOSEPH FIRE DEPARTMENT"},"geometry":{"type":"Point","coordinates":[-117.235579285105,45.35369938629774]}},{"type":"Feature","properties":{"NAME":"MULTNOMAH COUNTY RURAL FIRE PROTECTION DISTRICT 14 STATION 61 - SPRINGDALE"},"geometry":{"type":"Point","coordinates":[-122.33611892930978,45.519233037936004]}},{"type":"Feature","properties":{"NAME":"HILLSBORO FIRE AND RESCUE - PARKWOOD STATION"},"geometry":{"type":"Point","coordinates":[-122.95686830211315,45.523782861721244]}},{"type":"Feature","properties":{"NAME":"ASTORIA FIRE DEPARTMENT STATION 1"},"geometry":{"type":"Point","coordinates":[-123.81158951697097,46.19090267641088]}},{"type":"Feature","properties":{"NAME":"LANE COUNTY FIRE DISTRICT 1 STATION 18-3"},"geometry":{"type":"Point","coordinates":[-123.23726905291024,43.983043935970876]}},{"type":"Feature","properties":{"NAME":"IONE RURAL FIRE PROTECTION DISTRICT"},"geometry":{"type":"Point","coordinates":[-119.8263036229549,45.50114330155663]}},{"type":"Feature","properties":{"NAME":"HILLSBORO FIRE AND RESCUE STATION 3"},"geometry":{"type":"Point","coordinates":[-122.91000319077965,45.55126456854533]}},{"type":"Feature","properties":{"NAME":"MULTNOMAH COUNTY RURAL FIRE PROTECTION DISTRICT 14 STATION 62 - CORBETT"},"geometry":{"type":"Point","coordinates":[-122.28374894233701,45.531793845776306]}},{"type":"Feature","properties":{"NAME":"CORVALLIS FIRE DEPARTMENT STATION 1"},"geometry":{"type":"Point","coordinates":[-123.26118842912136,44.567424082569495]}},{"type":"Feature","properties":{"NAME":"NORTH GILLIAM COUNTY RURAL FIRE PROTECTION DISTRICT"},"geometry":{"type":"Point","coordinates":[-120.19358982962618,45.711504058018065]}},{"type":"Feature","properties":{"NAME":"YACHATS RURAL FIRE PROTECTION DISTRICT - NORTH STATION"},"geometry":{"type":"Point","coordinates":[-124.07980439486627,44.418055859177095]}},{"type":"Feature","properties":{"NAME":"SAUVIE ISLAND VOLUNTEER RURAL FIRE PROTECTION DISTRICT 30J"},"geometry":{"type":"Point","coordinates":[-122.83474323143633,45.65655795977141]}},{"type":"Feature","properties":{"NAME":"GRESHAM FIRE AND EMERGENCY SERVICES STATION 76"},"geometry":{"type":"Point","coordinates":[-122.35209875384693,45.4709041221138]}},{"type":"Feature","properties":{"NAME":"EUGENE FIRE STATION 1 - DOWNTOWN STATION"},"geometry":{"type":"Point","coordinates":[-123.09320048469682,44.045184788186106]}},{"type":"Feature","properties":{"NAME":"CORNELIUS FIRE DEPARTMENT STATION 8"},"geometry":{"type":"Point","coordinates":[-123.05553052541194,45.52160871081759]}},{"type":"Feature","properties":{"NAME":"MONITOR RURAL FIRE PROTECTION DISTRICT STATION 58"},"geometry":{"type":"Point","coordinates":[-122.74894577745938,45.10119011503081]}},{"type":"Feature","properties":{"NAME":"COQUILLE FIRE DEPARTMENT STATION 2"},"geometry":{"type":"Point","coordinates":[-124.19660821311292,43.10326381236566]}},{"type":"Feature","properties":{"NAME":"CANYONVILLE-SOUTH UMPQUA FIRE DEPARTMENT"},"geometry":{"type":"Point","coordinates":[-123.28163343858078,42.9319510038923]}},{"type":"Feature","properties":{"NAME":"CASCADE LOCKS FIRE AND EMERGENCY MEDICAL SERVICES"},"geometry":{"type":"Point","coordinates":[-121.89622162274985,45.66522297773473]}},{"type":"Feature","properties":{"NAME":"GRESHAM FIRE AND EMERGENCY SERVICES STATION 73"},"geometry":{"type":"Point","coordinates":[-122.46800827158074,45.47964380014033]}},{"type":"Feature","properties":{"NAME":"BEND FIRE DEPARTMENT STATION 303 - SOUTH FIRE STATION"},"geometry":{"type":"Point","coordinates":[-121.30333432694584,44.01716345631245]}},{"type":"Feature","properties":{"NAME":"YAMHILL FIRE PROTECTION DISTRICT"},"geometry":{"type":"Point","coordinates":[-123.18898841862831,45.34019293145775]}},{"type":"Feature","properties":{"NAME":"LAFAYETTE FIRE DEPARTMENT"},"geometry":{"type":"Point","coordinates":[-123.11325094155957,45.24393408617525]}},{"type":"Feature","properties":{"NAME":"DEE RURAL FIRE PROTECTION DISTRICT"},"geometry":{"type":"Point","coordinates":[-121.64015907067082,45.57420323065331]}},{"type":"Feature","properties":{"NAME":"CARLTON FIRE DEPARTMENT"},"geometry":{"type":"Point","coordinates":[-123.17880773905156,45.29463236170104]}},{"type":"Feature","properties":{"NAME":"SHERIDAN FIRE DISTRICT"},"geometry":{"type":"Point","coordinates":[-123.39717866716863,45.09671261392377]}},{"type":"Feature","properties":{"NAME":"AMITY FIRE DISTRICT"},"geometry":{"type":"Point","coordinates":[-123.20582690663225,45.11657555315279]}},{"type":"Feature","properties":{"NAME":"EUGENE FIRE STATION 2 - WHITEAKER STATION"},"geometry":{"type":"Point","coordinates":[-123.11988331376413,44.05805306587423]}},{"type":"Feature","properties":{"NAME":"SALEM FIRE DEPARTMENT STATION 2"},"geometry":{"type":"Point","coordinates":[-123.02259973616854,44.954854665541845]}},{"type":"Feature","properties":{"NAME":"KEIZER FIRE DISTRICT"},"geometry":{"type":"Point","coordinates":[-123.02424811526156,44.99731341198146]}},{"type":"Feature","properties":{"NAME":"JUNIPER FLAT RURAL FIRE PROTECTION DISTRICT"},"geometry":{"type":"Point","coordinates":[-121.25560813687136,45.12744396520389]}},{"type":"Feature","properties":{"NAME":"PARKDALE RURAL FIRE PROTECTION DISTRICT STATION 2"},"geometry":{"type":"Point","coordinates":[-121.56749123685316,45.53959331168993]}},{"type":"Feature","properties":{"NAME":"SAINT PAUL FIRE DISTRICT - HEADQUARTERS"},"geometry":{"type":"Point","coordinates":[-122.97507821487052,45.21082402235097]}},{"type":"Feature","properties":{"NAME":"GLENDALE RURAL FIRE PROTECTION DISTRICT"},"geometry":{"type":"Point","coordinates":[-123.41207649615363,42.74566313488436]}},{"type":"Feature","properties":{"NAME":"ALBANY FIRE DEPARTMENT STATION 3"},"geometry":{"type":"Point","coordinates":[-123.05638016513811,44.62437456241986]}},{"type":"Feature","properties":{"NAME":"IDANHA-DETROIT RURAL FIRE PROTECTION DISTRICT"},"geometry":{"type":"Point","coordinates":[-122.08141928047459,44.70271912498086]}},{"type":"Feature","properties":{"NAME":"DRAKES CROSSING RURAL FIRE PROTECTION DISTRICT"},"geometry":{"type":"Point","coordinates":[-122.65713818788771,44.92639523305957]}},{"type":"Feature","properties":{"NAME":"WALLOWA FIRE DEPARTMENT STATION 2"},"geometry":{"type":"Point","coordinates":[-117.20686032597203,45.27873457353882]}},{"type":"Feature","properties":{"NAME":"AUMSVILLE RURAL FIRE PROTECTION DISTRICT"},"geometry":{"type":"Point","coordinates":[-122.86962813330348,44.84128301368374]}},{"type":"Feature","properties":{"NAME":"SUBLIMITY RURAL FIRE PROTECTION DISTRICT"},"geometry":{"type":"Point","coordinates":[-122.79690033402798,44.83103302531052]}},{"type":"Feature","properties":{"NAME":"BANKS FIRE PROTECTION DISTRICT 13 - BUXTON STATION"},"geometry":{"type":"Point","coordinates":[-123.1907195019748,45.68811238042593]}},{"type":"Feature","properties":{"NAME":"NEWBERG FIRE DEPARTMENT STATION 21"},"geometry":{"type":"Point","coordinates":[-122.94633847512755,45.313144000835315]}},{"type":"Feature","properties":{"NAME":"SIXES RURAL FIRE PROTECTION"},"geometry":{"type":"Point","coordinates":[-124.47834917556652,42.83192320890939]}},{"type":"Feature","properties":{"NAME":"MARION COUNTY FIRE DISTRICT 1 STATION 4 - MACLEAY"},"geometry":{"type":"Point","coordinates":[-122.8889011806466,44.9073351469911]}},{"type":"Feature","properties":{"NAME":"BAY CITY FIRE DEPARTMENT"},"geometry":{"type":"Point","coordinates":[-123.8904400929767,45.52446415469028]}},{"type":"Feature","properties":{"NAME":"ECHO RURAL FIRE PROTECTION DISTRICT STATION 1 - HEADQUARTERS"},"geometry":{"type":"Point","coordinates":[-119.19469948112443,45.74262363706375]}},{"type":"Feature","properties":{"NAME":"ALBANY FIRE DEPARTMENT STATION 4"},"geometry":{"type":"Point","coordinates":[-123.13426913935642,44.65645270605118]}},{"type":"Feature","properties":{"NAME":"MARION COUNTY FIRE DISTRICT 1 STATION 6 - WHEATLAND"},"geometry":{"type":"Point","coordinates":[-123.02169994616182,45.03547337436808]}},{"type":"Feature","properties":{"NAME":"SPRINGFIELD DEPARTMENT OF FIRE AND LIFE SAFETY STATION 5"},"geometry":{"type":"Point","coordinates":[-123.0328689330203,44.07287366978604]}},{"type":"Feature","properties":{"NAME":"MARION COUNTY FIRE DISTRICT 1 STATION 3 - PRATUM"},"geometry":{"type":"Point","coordinates":[-122.87837099980126,44.95960901007271]}},{"type":"Feature","properties":{"NAME":"JUNCTION CITY RURAL FIRE PROTECTION DISTRICT STATION 2"},"geometry":{"type":"Point","coordinates":[-123.28071922638418,44.18961487628335]}},{"type":"Feature","properties":{"NAME":"AURORA RURAL FIRE PROTECTION DISTRICT HEADQUARTERS"},"geometry":{"type":"Point","coordinates":[-122.75536751770939,45.22934397574668]}},{"type":"Feature","properties":{"NAME":"STAYTON RURAL FIRE PROTECTION DISTRICT - STAYTON STATION"},"geometry":{"type":"Point","coordinates":[-122.81404812932318,44.79685303031092]}},{"type":"Feature","properties":{"NAME":"MARION COUNTY FIRE DISTRICT 1 STATION 2 - MIDDLE GROVE"},"geometry":{"type":"Point","coordinates":[-122.95653789828289,44.975453416656144]}},{"type":"Feature","properties":{"NAME":"MARION COUNTY FIRE DISTRICT 1 STATION 7 - LABISH CENTER"},"geometry":{"type":"Point","coordinates":[-122.91372877074816,45.03085338912604]}},{"type":"Feature","properties":{"NAME":"PILOT ROCK RURAL FIRE PROTECTION DISTRICT 7"},"geometry":{"type":"Point","coordinates":[-118.82855861429532,45.48642324585355]}},{"type":"Feature","properties":{"NAME":"HOSKINS-KINGS VALLEY RURAL FIRE PROTECTION DISTRICT"},"geometry":{"type":"Point","coordinates":[-123.43434835080757,44.67384477561202]}},{"type":"Feature","properties":{"NAME":"BANDON RURAL FIRE PROTECTION DISTRICT - KEHL STATION"},"geometry":{"type":"Point","coordinates":[-124.41009829869826,43.08306316440591]}},{"type":"Feature","properties":{"NAME":"WOODBURN RURAL FIRE PROTECTION DISTRICT STATION 24 - WACONDA"},"geometry":{"type":"Point","coordinates":[-122.97593792133122,45.085849785588735]}},{"type":"Feature","properties":{"NAME":"SUNRIVER FIRE DEPARTMENT"},"geometry":{"type":"Point","coordinates":[-121.43876046236322,43.88753588477285]}},{"type":"Feature","properties":{"NAME":"REEDSPORT VOLUNTEER FIRE DEPARTMENT STATION 2"},"geometry":{"type":"Point","coordinates":[-124.12656026596534,43.69456896811431]}},{"type":"Feature","properties":{"NAME":"ODELL RURAL FIRE PROTECTION DISTRICT"},"geometry":{"type":"Point","coordinates":[-121.54080931154422,45.62500411425421]}},{"type":"Feature","properties":{"NAME":"WOODBURN RURAL FIRE PROTECTION DISTRICT STATION 25 - BROADACRES"},"geometry":{"type":"Point","coordinates":[-122.86731822492658,45.18968294227932]}},{"type":"Feature","properties":{"NAME":"WOODBURN RURAL FIRE PROTECTION DISTRICT STATION 21 - HEADQUARTERS"},"geometry":{"type":"Point","coordinates":[-122.86663211424853,45.149265700420365]}},{"type":"Feature","properties":{"NAME":"PENDLETON CITY FIRE AND AMBULANCE STATION 2"},"geometry":{"type":"Point","coordinates":[-118.81052812126563,45.65441424884995]}},{"type":"Feature","properties":{"NAME":"WOODBURN RURAL FIRE PROTECTION DISTRICT STATION 22 - JAMES STREET"},"geometry":{"type":"Point","coordinates":[-122.83642821943651,45.146872955572746]}},{"type":"Feature","properties":{"NAME":"CLACKAMAS FIRE DISTRICT 1 STATION 9"},"geometry":{"type":"Point","coordinates":[-122.56841988265661,45.37302327149669]}},{"type":"Feature","properties":{"NAME":"DOUGLAS COUNTY FIRE DISTRICT 2 - MELROSE STATION"},"geometry":{"type":"Point","coordinates":[-123.46510883656896,43.24653412911443]}},{"type":"Feature","properties":{"NAME":"SPRINGFIELD DEPARTMENT OF FIRE AND LIFE SAFETY STATION 14"},"geometry":{"type":"Point","coordinates":[-122.95062009914862,44.04539878722777]}},{"type":"Feature","properties":{"NAME":"NESTUCCA RURAL FIRE PROTECTION DISTRICT STATION 83 - BEAVER"},"geometry":{"type":"Point","coordinates":[-123.82401809967631,45.27669279656719]}},{"type":"Feature","properties":{"NAME":"JEFFERSON COUNTY RURAL FIRE PROTECTION DISTRICT 1"},"geometry":{"type":"Point","coordinates":[-121.12906911641912,44.62455515613138]}},{"type":"Feature","properties":{"NAME":"PORT OF PORTLAND AIRPORT FIRE DEPARTMENT"},"geometry":{"type":"Point","coordinates":[-122.6087267405485,45.59688462011241]}},{"type":"Feature","properties":{"NAME":"FALLS CITY FIRE DEPARTMENT"},"geometry":{"type":"Point","coordinates":[-123.43370843193763,44.86632393861918]}},{"type":"Feature","properties":{"NAME":"SALEM FIRE DEPARTMENT STATION 8"},"geometry":{"type":"Point","coordinates":[-122.97853339391087,44.97701760041764]}},{"type":"Feature","properties":{"NAME":"UNITY VOLUNTEER FIRE DEPARTMENT"},"geometry":{"type":"Point","coordinates":[-118.18566644106066,44.43750425278893]}},{"type":"Feature","properties":{"NAME":"MONROE RURAL FIRE PROTECTION DISTRICT STATION 3"},"geometry":{"type":"Point","coordinates":[-123.36028814366243,44.3293963337377]}},{"type":"Feature","properties":{"NAME":"MONROE RURAL FIRE PROTECTION DISTRICT STATION 2"},"geometry":{"type":"Point","coordinates":[-123.35585772964518,44.36502262053549]}},{"type":"Feature","properties":{"NAME":"ALSEA RURAL FIRE PROTECTION DISTRICT"},"geometry":{"type":"Point","coordinates":[-123.59680917990654,44.38098392569626]}},{"type":"Feature","properties":{"NAME":"CORVALLIS FIRE DEPARTMENT STATION 3"},"geometry":{"type":"Point","coordinates":[-123.26739800590367,44.58837216527654]}},{"type":"Feature","properties":{"NAME":"CORVALLIS FIRE DEPARTMENT STATION 4"},"geometry":{"type":"Point","coordinates":[-123.26913784869592,44.543574143682456]}},{"type":"Feature","properties":{"NAME":"CORVALLIS FIRE DEPARTMENT STATION 2"},"geometry":{"type":"Point","coordinates":[-123.29031031933707,44.562303015439795]}},{"type":"Feature","properties":{"NAME":"ADAIR RURAL FIRE PROTECTION DISTRICT STATION 1401"},"geometry":{"type":"Point","coordinates":[-123.21814795983134,44.67076343215256]}},{"type":"Feature","properties":{"NAME":"CLACKAMAS FIRE DISTRICT 1 STATION 13 - CLARKES"},"geometry":{"type":"Point","coordinates":[-122.47562964534949,45.234162876708716]}},{"type":"Feature","properties":{"NAME":"HOODLAND FIRE DISTRICT 74 - MAIN STATION"},"geometry":{"type":"Point","coordinates":[-121.94814782282391,45.344373703318425]}},{"type":"Feature","properties":{"NAME":"LAKE OSWEGO FIRE DEPARTMENT STATION 212"},"geometry":{"type":"Point","coordinates":[-122.68150215071225,45.40653524166486]}},{"type":"Feature","properties":{"NAME":"CLACKAMAS FIRE DISTRICT 1 STATION 4 - LAKE ROAD"},"geometry":{"type":"Point","coordinates":[-122.59533952151641,45.42552293049538]}},{"type":"Feature","properties":{"NAME":"CLACKAMAS FIRE DISTRICT 1 STATION 8"},"geometry":{"type":"Point","coordinates":[-122.52986422366865,45.40575067559624]}},{"type":"Feature","properties":{"NAME":"CLACKAMAS FIRE DISTRICT 1 STATION 6"},"geometry":{"type":"Point","coordinates":[-122.53080003486534,45.44735269303077]}},{"type":"Feature","properties":{"NAME":"CLACKAMAS FIRE DISTRICT 1 STATION 10 - BEAVERCREEK"},"geometry":{"type":"Point","coordinates":[-122.51686944529096,45.28419358702526]}},{"type":"Feature","properties":{"NAME":"MOLALLA RURAL FIRE PROTECTION DISTRICT 73 - MULINO STATION"},"geometry":{"type":"Point","coordinates":[-122.58167986137238,45.206312716187185]}},{"type":"Feature","properties":{"NAME":"MOLALLA RURAL FIRE PROTECTION DISTRICT 73 MAIN STATION"},"geometry":{"type":"Point","coordinates":[-122.55500824221836,45.07475468821636]}},{"type":"Feature","properties":{"NAME":"MOLALLA RURAL FIRE PROTECTION DISTRICT 73 STATION 85"},"geometry":{"type":"Point","coordinates":[-122.57700825923209,45.15029298965325]}},{"type":"Feature","properties":{"NAME":"ESTACADA RURAL FIRE DISTRICT 69 STATION 110"},"geometry":{"type":"Point","coordinates":[-122.33322859752425,45.28595363073414]}},{"type":"Feature","properties":{"NAME":"SALEM FIRE DEPARTMENT STATION 9"},"geometry":{"type":"Point","coordinates":[-123.01049876042049,44.88185434418181]}},{"type":"Feature","properties":{"NAME":"LAKE OSWEGO FIRE DEPARTMENT STATION 210"},"geometry":{"type":"Point","coordinates":[-122.7249383110296,45.425762913580684]}},{"type":"Feature","properties":{"NAME":"BORING FIRE PROTECTION DISTRICT 59 STATION 140"},"geometry":{"type":"Point","coordinates":[-122.36826898582625,45.43287362820318]}},{"type":"Feature","properties":{"NAME":"LAKE OSWEGO FIRE DEPARTMENT STATION 211"},"geometry":{"type":"Point","coordinates":[-122.72370830426955,45.3972729188164]}},{"type":"Feature","properties":{"NAME":"CLACKAMAS FIRE DISTRICT 1 STATION 12 - LOGAN"},"geometry":{"type":"Point","coordinates":[-122.42326952491835,45.34411297114865]}},{"type":"Feature","properties":{"NAME":"CLACKAMAS FIRE DISTRICT 1 STATION 11 - REDLAND"},"geometry":{"type":"Point","coordinates":[-122.49029951483077,45.34297379830377]}},{"type":"Feature","properties":{"NAME":"CLACKAMAS FIRE DISTRICT 1 STATION 2"},"geometry":{"type":"Point","coordinates":[-122.6286780085266,45.44617329435382]}},{"type":"Feature","properties":{"NAME":"CLACKAMAS FIRE DISTRICT 1 STATION 3 - OAK LODGE"},"geometry":{"type":"Point","coordinates":[-122.6329683232786,45.41529292790569]}},{"type":"Feature","properties":{"NAME":"CLACKAMAS FIRE DISTRICT 1 STATION 14 - HIGHLAND"},"geometry":{"type":"Point","coordinates":[-122.40871688254617,45.24847358297225]}},{"type":"Feature","properties":{"NAME":"HOODLAND FIRE DISTRICT 74 - GOVERNMENT LOOP STATION"},"geometry":{"type":"Point","coordinates":[-121.7637789535144,45.30474286358423]}},{"type":"Feature","properties":{"NAME":"HOODLAND FIRE DISTRICT 74 - BRIGHTWOOD STATION"},"geometry":{"type":"Point","coordinates":[-122.03292056554503,45.37534355535983]}},{"type":"Feature","properties":{"NAME":"SALEM FIRE DEPARTMENT STATION 4"},"geometry":{"type":"Point","coordinates":[-123.0470193147723,44.91331339687351]}},{"type":"Feature","properties":{"NAME":"CHARLESTON RURAL FIRE PROTECTION DISTRICT STATION 1"},"geometry":{"type":"Point","coordinates":[-124.29187754956348,43.37096426796323]}},{"type":"Feature","properties":{"NAME":"BANKS FIRE PROTECTION DISTRICT 13 - TIMBER STATION"},"geometry":{"type":"Point","coordinates":[-123.30091850520203,45.71581253306087]}},{"type":"Feature","properties":{"NAME":"WASHINGTON COUNTY RURAL FIRE PROTECTION DISTRICT 2"},"geometry":{"type":"Point","coordinates":[-123.00028831567043,45.597333713091594]}},{"type":"Feature","properties":{"NAME":"SILVERTON FIRE DISTRICT STATION 3 - ABIQUA"},"geometry":{"type":"Point","coordinates":[-122.70366820631062,45.02149257871748]}},{"type":"Feature","properties":{"NAME":"WASHINGTON COUNTY RURAL FIRE PROTECTION DISTRICT 2 STATION 19"},"geometry":{"type":"Point","coordinates":[-122.95985827185807,45.41042288401582]}},{"type":"Feature","properties":{"NAME":"VALE FIRE AND AMBULANCE"},"geometry":{"type":"Point","coordinates":[-117.25004864493587,43.98600394758856]}},{"type":"Feature","properties":{"NAME":"MYRTLE POINT FIRE DEPARTMENT STATION 2"},"geometry":{"type":"Point","coordinates":[-124.14732706611602,43.008604045561185]}},{"type":"Feature","properties":{"NAME":"MYRTLE POINT FIRE DEPARTMENT STATION 3"},"geometry":{"type":"Point","coordinates":[-124.08092787660014,43.10525491598951]}},{"type":"Feature","properties":{"NAME":"COQUILLE FIRE DEPARTMENT STATION 4"},"geometry":{"type":"Point","coordinates":[-124.17357847447073,43.12076422803503]}},{"type":"Feature","properties":{"NAME":"MILLINGTON RURAL FIRE PROTECTION DISTRICT 5 STATION 1"},"geometry":{"type":"Point","coordinates":[-124.19987755611325,43.33465669789462]}},{"type":"Feature","properties":{"NAME":"BRIDGE RURAL FIRE"},"geometry":{"type":"Point","coordinates":[-124.00988996074068,43.025953871999214]}},{"type":"Feature","properties":{"NAME":"CHARLESTON RURAL FIRE PROTECTION DISTRICT - CHARLESTON STATION"},"geometry":{"type":"Point","coordinates":[-124.32479252845154,43.34110404439135]}},{"type":"Feature","properties":{"NAME":"DORA-SITKUM RURAL FIRE PROTECTION DISTRICT"},"geometry":{"type":"Point","coordinates":[-123.95513755166162,43.15427677603149]}},{"type":"Feature","properties":{"NAME":"NORTH BEND FIRE DEPARTMENT STATION 2"},"geometry":{"type":"Point","coordinates":[-124.24563682748067,43.41499290927554]}},{"type":"Feature","properties":{"NAME":"NORTH BEND FIRE STATION 3"},"geometry":{"type":"Point","coordinates":[-124.24296849676594,43.391774788720085]}},{"type":"Feature","properties":{"NAME":"MILLINGTON RURAL FIRE PROTECTION DISTRICT 5 STATION 2"},"geometry":{"type":"Point","coordinates":[-124.19368874419042,43.321523523553836]}},{"type":"Feature","properties":{"NAME":"SCIO RURAL FIRE PROTECTION DISTRICT STATION 90"},"geometry":{"type":"Point","coordinates":[-122.84899809870126,44.70043824075199]}},{"type":"Feature","properties":{"NAME":"CAPE FERRELO RURAL FIRE PROTECTION DISTRICT"},"geometry":{"type":"Point","coordinates":[-124.32288774226697,42.1258334757139]}},{"type":"Feature","properties":{"NAME":"HARBOR RURAL FIRE PROTECTION DISTRICT"},"geometry":{"type":"Point","coordinates":[-124.25478925536878,42.04282415398834]}},{"type":"Feature","properties":{"NAME":"OPHIR RURAL FIRE DEPARTMENT"},"geometry":{"type":"Point","coordinates":[-124.41506852407451,42.501834176054466]}},{"type":"Feature","properties":{"NAME":"PISTOL RIVER RURAL FIRE PROTECTION DISTRICT"},"geometry":{"type":"Point","coordinates":[-124.39497814655934,42.27684335508438]}},{"type":"Feature","properties":{"NAME":"LANGLOIS RURAL FIRE PROTECTION DISTRICT"},"geometry":{"type":"Point","coordinates":[-124.44847717500099,42.92562421944791]}},{"type":"Feature","properties":{"NAME":"WINCHUCK RURAL FIRE PROTECTION DISTRICT"},"geometry":{"type":"Point","coordinates":[-124.16582727045669,42.03426401827836]}},{"type":"Feature","properties":{"NAME":"CEDAR VALLEY FIRE DEPARTMENT"},"geometry":{"type":"Point","coordinates":[-124.36805733931577,42.48775319072963]}},{"type":"Feature","properties":{"NAME":"MILL CITY FIRE DEPARTMENT"},"geometry":{"type":"Point","coordinates":[-122.47705578220078,44.752143084177405]}},{"type":"Feature","properties":{"NAME":"BLACK BUTTE RANCH RURAL FIRE PROTECTION DISTRICT"},"geometry":{"type":"Point","coordinates":[-121.66014006940976,44.360291964393916]}},{"type":"Feature","properties":{"NAME":"MULTNOMAH COUNTY RURAL FIRE PROTECTION DISTRICT 14 STATION 63 - AIMS"},"geometry":{"type":"Point","coordinates":[-122.24446322506398,45.46950046233794]}},{"type":"Feature","properties":{"NAME":"BANDON RURAL FIRE PROTECTION DISTRICT - MAIN STATION"},"geometry":{"type":"Point","coordinates":[-124.4173277215266,43.10869332033056]}},{"type":"Feature","properties":{"NAME":"HILLSBORO FIRE AND RESCUE STATION 1 - DOWNTOWN/MAIN STATION"},"geometry":{"type":"Point","coordinates":[-122.98950948685633,45.52075285750115]}},{"type":"Feature","properties":{"NAME":"MYRTLE CREEK FIRE DEPARTMENT"},"geometry":{"type":"Point","coordinates":[-123.28099413079845,43.02299425580572]}},{"type":"Feature","properties":{"NAME":"LYONS RURAL FIRE PROTECTION DISTRICT STATION 1"},"geometry":{"type":"Point","coordinates":[-122.61084694108689,44.77301288279952]}},{"type":"Feature","properties":{"NAME":"LAKE OSWEGO FIRE DEPARTMENT STATION 214"},"geometry":{"type":"Point","coordinates":[-122.66691950844961,45.42070375689764]}},{"type":"Feature","properties":{"NAME":"VERNONIA RURAL FIRE PROTECTION DISTRICT"},"geometry":{"type":"Point","coordinates":[-123.18033892816632,45.85738533831319]}},{"type":"Feature","properties":{"NAME":"SCIO RURAL FIRE PROTECTION DISTRICT STATION 93"},"geometry":{"type":"Point","coordinates":[-122.69210812248745,44.698464798100254]}},{"type":"Feature","properties":{"NAME":"NORTH LINCOLN FIRE AND RESCUE DISTRICT 1 STATION 1200 - ROSE LODGE"},"geometry":{"type":"Point","coordinates":[-123.88073754372549,45.01002301312641]}},{"type":"Feature","properties":{"NAME":"NORTH LINCOLN FIRE AND RESCUE DISTRICT 1 STATION 1400 - LINCOLN CITY NORTH"},"geometry":{"type":"Point","coordinates":[-124.00766799275844,44.98366283340902]}},{"type":"Feature","properties":{"NAME":"LANE RURAL FIRE AND RESCUE STATION 51"},"geometry":{"type":"Point","coordinates":[-123.1673571127513,44.11494533992431]}},{"type":"Feature","properties":{"NAME":"NORTH LINCOLN FIRE AND RESCUE DISTRICT 1 STATION 1500 - DELAKE"},"geometry":{"type":"Point","coordinates":[-124.01823744752089,44.96406166446946]}},{"type":"Feature","properties":{"NAME":"LANE RURAL FIRE AND RESCUE STATION 52"},"geometry":{"type":"Point","coordinates":[-123.2642595423981,44.12606444747181]}},{"type":"Feature","properties":{"NAME":"LANE RURAL FIRE AND RESCUE STATION 53"},"geometry":{"type":"Point","coordinates":[-123.30805731931363,44.15638279011485]}},{"type":"Feature","properties":{"NAME":"NORTH LINCOLN FIRE AND RESCUE DISTRICT 1 STATION 1700 - KERNVILLE"},"geometry":{"type":"Point","coordinates":[-123.94467953121108,44.884563992862745]}},{"type":"Feature","properties":{"NAME":"SIUSLAW VALLEY FIRE AND RESCUE STATION 4 - SUTTON STATION"},"geometry":{"type":"Point","coordinates":[-124.09595915474411,44.05155286753662]}},{"type":"Feature","properties":{"NAME":"LAKE CREEK FIRE AND RESCUE"},"geometry":{"type":"Point","coordinates":[-123.49520162095315,44.21443786571241]}},{"type":"Feature","properties":{"NAME":"MCKENZIE FIRE AND RESCUE STATION 1 - WALTERVILLE STATION"},"geometry":{"type":"Point","coordinates":[-122.82508832009096,44.06035365022108]}},{"type":"Feature","properties":{"NAME":"GRANTS PASS FIRE AND RESCUE OPERATIONS DIVISION STATION 1 - HEADQUARTERS"},"geometry":{"type":"Point","coordinates":[-123.32467653268694,42.45770321624754]}},{"type":"Feature","properties":{"NAME":"NORTH DOUGLAS COUNTY FIRE AND EMERGENCY MEDICAL SERVICES STATION 6"},"geometry":{"type":"Point","coordinates":[-123.29275513931407,43.502631569159945]}},{"type":"Feature","properties":{"NAME":"NORTH DOUGLAS COUNTY FIRE AND EMERGENCY MEDICAL SERVICES STATION 5"},"geometry":{"type":"Point","coordinates":[-123.21679533582984,43.611675865299816]}},{"type":"Feature","properties":{"NAME":"NORTH DOUGLAS COUNTY FIRE AND EMERGENCY MEDICAL SERVICES STATION 4"},"geometry":{"type":"Point","coordinates":[-123.20904542457139,43.722774826973534]}},{"type":"Feature","properties":{"NAME":"NORTH DOUGLAS COUNTY FIRE AND EMERGENCY MEDICAL SERVICES STATION 3"},"geometry":{"type":"Point","coordinates":[-123.29262780079326,43.53551795386268]}},{"type":"Feature","properties":{"NAME":"NORTH DOUGLAS COUNTY FIRE AND EMERGENCY MEDICAL SERVICES STATION 2"},"geometry":{"type":"Point","coordinates":[-123.28310775812633,43.59958407529821]}},{"type":"Feature","properties":{"NAME":"NORTH DOUGLAS COUNTY FIRE AND EMERGENCY MEDICAL SERVICES STATION 1"},"geometry":{"type":"Point","coordinates":[-123.3187932618014,43.65831673611671]}},{"type":"Feature","properties":{"NAME":"REDMOND FIRE AND RESCUE STATION 404"},"geometry":{"type":"Point","coordinates":[-121.25034092516064,44.27701432935211]}},{"type":"Feature","properties":{"NAME":"CROOK COUNTY FIRE AND RESCUE - POWELL BUTTE STATION"},"geometry":{"type":"Point","coordinates":[-121.02733847553594,44.221854321792804]}},{"type":"Feature","properties":{"NAME":"TUALATIN VALLEY FIRE AND RESCUE STATION 53 - PROGRESS"},"geometry":{"type":"Point","coordinates":[-122.78097831269731,45.45868379439046]}},{"type":"Feature","properties":{"NAME":"TUALATIN VALLEY FIRE AND RESCUE STATION 65 - WEST SLOPE"},"geometry":{"type":"Point","coordinates":[-122.76606951485658,45.4989728927571]}},{"type":"Feature","properties":{"NAME":"TUALATIN VALLEY FIRE AND RESCUE STATION 35 - KING CITY"},"geometry":{"type":"Point","coordinates":[-122.79986829278566,45.39641290957378]}},{"type":"Feature","properties":{"NAME":"TUALATIN VALLEY FIRE AND RESCUE STATION 69 - COOPER MOUNTAIN"},"geometry":{"type":"Point","coordinates":[-122.85629829814862,45.448303765982196]}},{"type":"Feature","properties":{"NAME":"TUALATIN VALLEY FIRE AND RESCUE STATION 64 - SOMERSET"},"geometry":{"type":"Point","coordinates":[-122.86827928107213,45.54332245981101]}},{"type":"Feature","properties":{"NAME":"SWEET HOME FIRE AND AMBULANCE DISTRICT STATION 23"},"geometry":{"type":"Point","coordinates":[-122.85508491487835,44.35487466738762]}},{"type":"Feature","properties":{"NAME":"TUALATIN VALLEY FIRE AND RESCUE STATION 62 - ALOHA"},"geometry":{"type":"Point","coordinates":[-122.89125772063983,45.49320274014519]}},{"type":"Feature","properties":{"NAME":"TUALATIN VALLEY FIRE AND RESCUE STATION 51 - TIGARD"},"geometry":{"type":"Point","coordinates":[-122.7682494949762,45.42763290669861]}},{"type":"Feature","properties":{"NAME":"TUALATIN VALLEY FIRE AND RESCUE STATION 34 - TUALATIN"},"geometry":{"type":"Point","coordinates":[-122.77090988962419,45.37976291692153]}},{"type":"Feature","properties":{"NAME":"FOREST GROVE FIRE AND RESCUE - GALES CREEK"},"geometry":{"type":"Point","coordinates":[-123.21403789269168,45.585174049562966]}},{"type":"Feature","properties":{"NAME":"MID-COLUMBIA FIRE AND RESCUE STATION 2"},"geometry":{"type":"Point","coordinates":[-121.13543859580476,45.59893200593408]}},{"type":"Feature","properties":{"NAME":"COLUMBIA RIVER FIRE AND RESCUE - GOBLE"},"geometry":{"type":"Point","coordinates":[-122.90827796651128,46.00096329514619]}},{"type":"Feature","properties":{"NAME":"BROWNSVILLE RURAL FIRE DISTRICT 61"},"geometry":{"type":"Point","coordinates":[-122.98473809341957,44.39312460556042]}},{"type":"Feature","properties":{"NAME":"TYGH VALLEY FIRE DEPARTMENT"},"geometry":{"type":"Point","coordinates":[-121.17584751773293,45.24731281896618]}},{"type":"Feature","properties":{"NAME":"MOSIER RURAL FIRE DISTRICT STATION 1"},"geometry":{"type":"Point","coordinates":[-121.38447858194054,45.67935429268001]}},{"type":"Feature","properties":{"NAME":"LA PINE RURAL FIRE PROTECTION DISTRICT"},"geometry":{"type":"Point","coordinates":[-121.5042980320955,43.67325389102585]}},{"type":"Feature","properties":{"NAME":"CLOVERDALE RURAL FIRE PROTECTION DISTRICT STATION 1"},"geometry":{"type":"Point","coordinates":[-121.4533791526592,44.29043628449705]}},{"type":"Feature","properties":{"NAME":"MOSIER FIRE DEPARTMENT"},"geometry":{"type":"Point","coordinates":[-121.39844796388658,45.68288847945616]}},{"type":"Feature","properties":{"NAME":"LA PINE FIRE DEPARTMENT STATION 103"},"geometry":{"type":"Point","coordinates":[-121.52668751465207,43.70362416423974]}},{"type":"Feature","properties":{"NAME":"CLOVERDALE RURAL FIRE PROTECTION DISTRICT STATION 2"},"geometry":{"type":"Point","coordinates":[-121.47344982486696,44.24168460629278]}},{"type":"Feature","properties":{"NAME":"SISTERS-CAMP SHERMAN FIRE DISTRICT STATION 703 - SQUAW CREEK CANYON STATION"},"geometry":{"type":"Point","coordinates":[-121.47131820595949,44.3400537272586]}},{"type":"Feature","properties":{"NAME":"SISTERS-CAMP SHERMAN FIRE DISTRICT STATION 702 - TOLLGATE STATION"},"geometry":{"type":"Point","coordinates":[-121.58482989645545,44.31198567479326]}},{"type":"Feature","properties":{"NAME":"DOUGLAS COUNTY FIRE DISTRICT 2 DIXONVILLE STATION 1"},"geometry":{"type":"Point","coordinates":[-123.25267454410105,43.20920960156153]}},{"type":"Feature","properties":{"NAME":"LEBANON FIRE DISTRICT STATION 31"},"geometry":{"type":"Point","coordinates":[-122.92290804438676,44.53597958192675]}},{"type":"Feature","properties":{"NAME":"SUTHERLIN FIRE DEPARTMENT"},"geometry":{"type":"Point","coordinates":[-123.3122488923881,43.38865325291084]}},{"type":"Feature","properties":{"NAME":"DOUGLAS COUNTY FIRE DISTRICT 2 STATION 4"},"geometry":{"type":"Point","coordinates":[-123.3524206940612,43.29152461874348]}},{"type":"Feature","properties":{"NAME":"DOUGLAS COUNTY FIRE DISTRICT 2 STATION 2"},"geometry":{"type":"Point","coordinates":[-123.38247554221788,43.15311552105922]}},{"type":"Feature","properties":{"NAME":"DOUGLAS COUNTY FIRE DISTRICT 2 STATION 5"},"geometry":{"type":"Point","coordinates":[-123.41148365067902,43.28326796404342]}},{"type":"Feature","properties":{"NAME":"DOUGLAS COUNTY FIRE DISTRICT 2"},"geometry":{"type":"Point","coordinates":[-123.4715273660407,43.363683583676796]}},{"type":"Feature","properties":{"NAME":"ROSEBURG FIRE DEPARTMENT STATION 1"},"geometry":{"type":"Point","coordinates":[-123.34650765527016,43.20763328592424]}},{"type":"Feature","properties":{"NAME":"ROSEBURG FIRE DEPARTMENT STATION 3"},"geometry":{"type":"Point","coordinates":[-123.36669884744056,43.22812414640978]}},{"type":"Feature","properties":{"NAME":"ROSEBURG FIRE DEPARTMENT STATION 2"},"geometry":{"type":"Point","coordinates":[-123.37759000094582,43.214261836581926]}},{"type":"Feature","properties":{"NAME":"ENTERPRISE FIRE DEPARTMENT"},"geometry":{"type":"Point","coordinates":[-117.27663904794811,45.426194803420614]}},{"type":"Feature","properties":{"NAME":"WALLOWA FIRE DEPARTMENT"},"geometry":{"type":"Point","coordinates":[-117.52845515256979,45.57081001539746]}},{"type":"Feature","properties":{"NAME":"HALSEY-SHEDD RURAL FIRE PROTECTION DISTRICT STATION 51"},"geometry":{"type":"Point","coordinates":[-123.10950559210252,44.38358851705552]}},{"type":"Feature","properties":{"NAME":"REEDSPORT VOLUNTEER FIRE DEPARTMENT STATION 1"},"geometry":{"type":"Point","coordinates":[-124.09688884835154,43.70179309023896]}},{"type":"Feature","properties":{"NAME":"FAIR OAKS RURAL FIRE PROTECTION DISTRICT"},"geometry":{"type":"Point","coordinates":[-123.2008008427349,43.40935326287917]}},{"type":"Feature","properties":{"NAME":"GLIDE RURAL FIRE PROTECTION DISTRICT"},"geometry":{"type":"Point","coordinates":[-123.09804809388753,43.298753989190345]}},{"type":"Feature","properties":{"NAME":"OAKLAND RURAL FIRE PROTECTION DISTRICT"},"geometry":{"type":"Point","coordinates":[-123.29735771384979,43.422083248213305]}},{"type":"Feature","properties":{"NAME":"TENMILE RURAL FIRE PROTECTION DISTRICT"},"geometry":{"type":"Point","coordinates":[-123.56935632655589,43.09321616426771]}},{"type":"Feature","properties":{"NAME":"TRI-CITY RURAL FIRE DEPARTMENT"},"geometry":{"type":"Point","coordinates":[-123.32025680869278,42.98655391781348]}},{"type":"Feature","properties":{"NAME":"LOOKINGGLASS VOLUNTEER FIRE DEPARTMENT"},"geometry":{"type":"Point","coordinates":[-123.48682545876534,43.180767092515936]}},{"type":"Feature","properties":{"NAME":"CAMAS VALLEY FIRE DEPARTMENT STATION 1"},"geometry":{"type":"Point","coordinates":[-123.67621796458366,43.03373370351878]}},{"type":"Feature","properties":{"NAME":"DAYS CREEK FIRE DEPARTMENT"},"geometry":{"type":"Point","coordinates":[-123.1625695837227,42.96852381129274]}},{"type":"Feature","properties":{"NAME":"DIAMOND LAKE VOLUNTEER FIRE DEPARTMENT"},"geometry":{"type":"Point","coordinates":[-122.13711852868683,43.177168687722244]}},{"type":"Feature","properties":{"NAME":"MILO RURAL FIRE PROTECTION DISTRICT"},"geometry":{"type":"Point","coordinates":[-123.04020882636857,42.93468337878622]}},{"type":"Feature","properties":{"NAME":"RIDDLE VOLUNTEER FIRE DEPARTMENT"},"geometry":{"type":"Point","coordinates":[-123.36648878243601,42.950153335905505]}},{"type":"Feature","properties":{"NAME":"SCOTTSBURG RURAL FIRE PROTECTION DISTRICT"},"geometry":{"type":"Point","coordinates":[-123.80416969291785,43.674883132523384]}},{"type":"Feature","properties":{"NAME":"GARDINER RURAL FIRE PROTECTION DISTRICT"},"geometry":{"type":"Point","coordinates":[-124.11079015825408,43.73210398375427]}},{"type":"Feature","properties":{"NAME":"WINCHESTER BAY RURAL FIRE PROTECTION DISTRICT"},"geometry":{"type":"Point","coordinates":[-124.1749276404231,43.677757314626035]}},{"type":"Feature","properties":{"NAME":"LEBANON FIRE DISTRICT STATION 32"},"geometry":{"type":"Point","coordinates":[-122.73900808620358,44.585494818224525]}},{"type":"Feature","properties":{"NAME":"CITY OF CONDON VOLUNTEER FIRE DEPARTMENT"},"geometry":{"type":"Point","coordinates":[-120.1844886266115,45.23646413987836]}},{"type":"Feature","properties":{"NAME":"SOUTH GILLIAM COUNTY RURAL FIRE PROTECTION DISTRICT"},"geometry":{"type":"Point","coordinates":[-120.18452988521882,45.23828483389272]}},{"type":"Feature","properties":{"NAME":"CANYON CITY VOLUNTEER FIRE DEPARTMENT"},"geometry":{"type":"Point","coordinates":[-118.94904976663489,44.38781354336131]}},{"type":"Feature","properties":{"NAME":"SENECA VOLUNTEER FIRE DEPARTMENT"},"geometry":{"type":"Point","coordinates":[-118.9704984816597,44.13427453553773]}},{"type":"Feature","properties":{"NAME":"PRAIRIE CITY FIRE DEPARTMENT"},"geometry":{"type":"Point","coordinates":[-118.71096770737822,44.461559937588824]}},{"type":"Feature","properties":{"NAME":"BURNS FIRE DEPARTMENT"},"geometry":{"type":"Point","coordinates":[-119.05494713831791,43.583823771725115]}},{"type":"Feature","properties":{"NAME":"PARKDALE RURAL FIRE PROTECTION DISTRICT"},"geometry":{"type":"Point","coordinates":[-121.59055904245993,45.51932269419635]}},{"type":"Feature","properties":{"NAME":"PINE GROVE RURAL FIRE PROTECTION DISTRICT"},"geometry":{"type":"Point","coordinates":[-121.51283849858947,45.653102951021495]}},{"type":"Feature","properties":{"NAME":"WESTSIDE RURAL FIRE PROTECTION DISTRICT STATION 1"},"geometry":{"type":"Point","coordinates":[-121.52732975272676,45.68530385602218]}},{"type":"Feature","properties":{"NAME":"HOOD RIVER FIRE AND EMERGENCY MEDICAL SERVICES"},"geometry":{"type":"Point","coordinates":[-121.52900664118958,45.70304802005638]}},{"type":"Feature","properties":{"NAME":"COVE RURAL FIRE PROTECTION DISTRICT"},"geometry":{"type":"Point","coordinates":[-117.81185910533368,45.29682284859062]}},{"type":"Feature","properties":{"NAME":"NORTH POWDER RURAL FIRE PROTECTION DISTRICT"},"geometry":{"type":"Point","coordinates":[-117.92081004623662,45.02970366231796]}},{"type":"Feature","properties":{"NAME":"IMBLER RURAL FIRE PROTECTION DISTRICT - HEADQUARTERS"},"geometry":{"type":"Point","coordinates":[-117.96299956306119,45.45739437996489]}},{"type":"Feature","properties":{"NAME":"LA GRANDE RURAL FIRE PROTECTION DISTRICT"},"geometry":{"type":"Point","coordinates":[-118.04570892972718,45.33950442367726]}},{"type":"Feature","properties":{"NAME":"WESTSIDE RURAL FIRE PROTECTION DISTRICT STATION 2"},"geometry":{"type":"Point","coordinates":[-121.56418855644456,45.67872520060786]}},{"type":"Feature","properties":{"NAME":"JACKSON COUNTY FIRE DISTRICT 4 SHADY COVE STATION"},"geometry":{"type":"Point","coordinates":[-122.81404759467952,42.60801347280592]}},{"type":"Feature","properties":{"NAME":"JACKSON COUNTY FIRE DISTRICT 3 CENTRAL POINT STATION"},"geometry":{"type":"Point","coordinates":[-122.91304986499757,42.36883308169403]}},{"type":"Feature","properties":{"NAME":"BUTTE FALLS VOLUNTEER FIRE DEPARTMENT"},"geometry":{"type":"Point","coordinates":[-122.5663871784226,42.54381461740079]}},{"type":"Feature","properties":{"NAME":"JACKSON COUNTY FIRE DISTRICT 5"},"geometry":{"type":"Point","coordinates":[-122.79128822840431,42.25091425516496]}},{"type":"Feature","properties":{"NAME":"JACKSONVILLE FIRE DEPARTMENT"},"geometry":{"type":"Point","coordinates":[-122.96716768600868,42.31446378579685]}},{"type":"Feature","properties":{"NAME":"ROGUE VALLEY INTERNATIONAL MEDFORD AIRPORT FIRE DEPARTMENT"},"geometry":{"type":"Point","coordinates":[-122.87238537805248,42.367233513586505]}},{"type":"Feature","properties":{"NAME":"MEDFORD FIRE DEPARTMENT STATION 3"},"geometry":{"type":"Point","coordinates":[-122.85021752504704,42.320663789685504]}},{"type":"Feature","properties":{"NAME":"MEDFORD FIRE DEPARTMENT STATION 4"},"geometry":{"type":"Point","coordinates":[-122.88208617220779,42.350064991659664]}},{"type":"Feature","properties":{"NAME":"PROSPECT FIRE DEPARTMENT"},"geometry":{"type":"Point","coordinates":[-122.48915222379335,42.75156791003883]}},{"type":"Feature","properties":{"NAME":"THREE RIVERS VOLUNTEER FIRE DEPARTMENT"},"geometry":{"type":"Point","coordinates":[-121.36381768827985,44.56815288722443]}},{"type":"Feature","properties":{"NAME":"APPLEGATE VALLEY RURAL FIRE PROTECTION DISTRICT 9 STATION 6"},"geometry":{"type":"Point","coordinates":[-123.22999048501596,42.31551104289238]}},{"type":"Feature","properties":{"NAME":"LEBANON FIRE DISTRICT STATION 33"},"geometry":{"type":"Point","coordinates":[-122.8212541372427,44.4805296127304]}},{"type":"Feature","properties":{"NAME":"KLAMATH COUNTY FIRE DISTRICT 1 STATION 5"},"geometry":{"type":"Point","coordinates":[-121.80987894391966,42.269154135753155]}},{"type":"Feature","properties":{"NAME":"KLAMATH COUNTY FIRE DISTRICT 1 STATION 6 - HEADQUARTERS"},"geometry":{"type":"Point","coordinates":[-121.77542809162206,42.229115486931576]}},{"type":"Feature","properties":{"NAME":"CHILOQUIN AGENCY - LAKE FIRE DISTRICT STATION 1"},"geometry":{"type":"Point","coordinates":[-121.86274969142504,42.57536407111091]}},{"type":"Feature","properties":{"NAME":"KLAMATH COUNTY FIRE DISTRICT 1 STATION 1"},"geometry":{"type":"Point","coordinates":[-121.73298125015049,42.205866802945934]}},{"type":"Feature","properties":{"NAME":"KLAMATH COUNTY FIRE DISTRICT 1 STATION 2"},"geometry":{"type":"Point","coordinates":[-121.70245813379798,42.19992790149107]}},{"type":"Feature","properties":{"NAME":"KLAMATH COUNTY FIRE DISTRICT 1 STATION 3"},"geometry":{"type":"Point","coordinates":[-121.75953929515916,42.214132151081095]}},{"type":"Feature","properties":{"NAME":"KLAMATH COUNTY FIRE DISTRICT 1 STATION 4"},"geometry":{"type":"Point","coordinates":[-121.78908861753683,42.249024663033666]}},{"type":"Feature","properties":{"NAME":"BONANZA RURAL FIRE PROTECTION DISTRICT"},"geometry":{"type":"Point","coordinates":[-121.40032659483107,42.19954492750206]}},{"type":"Feature","properties":{"NAME":"BLY RURAL FIRE PROTECTION DISTRICT"},"geometry":{"type":"Point","coordinates":[-121.04897249168984,42.40686178182907]}},{"type":"Feature","properties":{"NAME":"CRESCENT RURAL FIRE PROTECTION DISTRICT STATION 1 - HEADQUARTERS"},"geometry":{"type":"Point","coordinates":[-121.69403676386439,43.46247474053193]}},{"type":"Feature","properties":{"NAME":"KLAMATH COUNTY FIRE DISTRICT 4"},"geometry":{"type":"Point","coordinates":[-121.80800760191627,42.19209455945566]}},{"type":"Feature","properties":{"NAME":"PAISLEY VOLUNTEER FIRE DEPARTMENT"},"geometry":{"type":"Point","coordinates":[-120.54535470380907,42.691580735836325]}},{"type":"Feature","properties":{"NAME":"SILVER LAKE RURAL FIRE PROTECTION DISTRICT"},"geometry":{"type":"Point","coordinates":[-121.04753760332767,43.12558135362871]}},{"type":"Feature","properties":{"NAME":"CLACKAMAS FIRE DISTRICT 1 STATION 1 - TOWN CENTER"},"geometry":{"type":"Point","coordinates":[-122.58191833765194,45.44060376424404]}},{"type":"Feature","properties":{"NAME":"SPRINGFIELD DEPARTMENT OF FIRE AND LIFE SAFETY STATION 4"},"geometry":{"type":"Point","coordinates":[-123.01898742678235,44.05903315452061]}},{"type":"Feature","properties":{"NAME":"LANE COUNTY FIRE DISTRICT 1 STATION 11-1"},"geometry":{"type":"Point","coordinates":[-123.35231148778955,44.047626103195945]}},{"type":"Feature","properties":{"NAME":"PLEASANT HILL VOLUNTEER FIRE PROTECTION DISTRICT STATION 1"},"geometry":{"type":"Point","coordinates":[-122.93113163697444,43.96604408308756]}},{"type":"Feature","properties":{"NAME":"WESTFIR FIRE DEPARTMENT"},"geometry":{"type":"Point","coordinates":[-122.49127171318544,43.758302974593825]}},{"type":"Feature","properties":{"NAME":"SPRINGFIELD DEPARTMENT OF FIRE AND LIFE SAFETY STATION 3"},"geometry":{"type":"Point","coordinates":[-122.98615791327579,44.05638863152222]}},{"type":"Feature","properties":{"NAME":"SPRINGFIELD DEPARTMENT OF FIRE AND LIFE SAFETY STATION 16"},"geometry":{"type":"Point","coordinates":[-122.90514359241486,44.04526448130029]}},{"type":"Feature","properties":{"NAME":"SILETZ RURAL FIRE PROTECTION DISTRICT - LOGSDEN SUBSTATION"},"geometry":{"type":"Point","coordinates":[-123.78942971708629,44.74285335881634]}},{"type":"Feature","properties":{"NAME":"SEAL ROCK RURAL FIRE PROTECTION DISTRICT - BAYSHORE STATION"},"geometry":{"type":"Point","coordinates":[-124.07518759950437,44.44088384039769]}},{"type":"Feature","properties":{"NAME":"LANE COUNTY FIRE DISTRICT 1 STATION 11-2"},"geometry":{"type":"Point","coordinates":[-123.29609786329355,44.03738732655981]}},{"type":"Feature","properties":{"NAME":"SOUTH LANE COUNTY FIRE AND RESCUE STATION 23"},"geometry":{"type":"Point","coordinates":[-123.0202578412073,43.91742340103045]}},{"type":"Feature","properties":{"NAME":"DEPOE BAY RURAL FIRE PROTECTION DISTRICT STATION 2200 - GLENEDEN BEACH"},"geometry":{"type":"Point","coordinates":[-124.03430331634571,44.875781846047786]}},{"type":"Feature","properties":{"NAME":"SILETZ RURAL FIRE PROTECTION DISTRICT - MAIN STATION"},"geometry":{"type":"Point","coordinates":[-123.91869817302977,44.72178360292029]}},{"type":"Feature","properties":{"NAME":"TILLAMOOK FIRE DISTRICT STATION 71"},"geometry":{"type":"Point","coordinates":[-123.84026814494807,45.45575275689878]}},{"type":"Feature","properties":{"NAME":"NETARTS - OCEANSIDE RURAL FIRE PROTECTION DISTRICT STATION 61 - HEADQUARTERS"},"geometry":{"type":"Point","coordinates":[-123.94797874661396,45.436713184179446]}},{"type":"Feature","properties":{"NAME":"NESTUCCA RURAL FIRE PROTECTION DISTRICT STATION 81 - HEADQUARTERS"},"geometry":{"type":"Point","coordinates":[-123.88807765428919,45.20671425106276]}},{"type":"Feature","properties":{"NAME":"LORANE RURAL FIRE PROTECTION DISTRICT"},"geometry":{"type":"Point","coordinates":[-123.2398773997503,43.837433110094246]}},{"type":"Feature","properties":{"NAME":"MOHAWK VALLEY RURAL FIRE DISTRICT STATION 2"},"geometry":{"type":"Point","coordinates":[-122.819850824325,44.2246266388715]}},{"type":"Feature","properties":{"NAME":"SEAL ROCK RURAL FIRE PROTECTION DISTRICT - SEAL ROCK STATION"},"geometry":{"type":"Point","coordinates":[-124.08132904595278,44.499265047022156]}},{"type":"Feature","properties":{"NAME":"GARIBALDI FIRE DEPARTMENT"},"geometry":{"type":"Point","coordinates":[-123.91426691441514,45.55983359807084]}},{"type":"Feature","properties":{"NAME":"NEHALEM CITY HALL AND FIRE DEPARTMENT"},"geometry":{"type":"Point","coordinates":[-123.8954482070241,45.71719269425688]}},{"type":"Feature","properties":{"NAME":"ROCKAWAY BEACH FIRE DEPARTMENT"},"geometry":{"type":"Point","coordinates":[-123.943621094358,45.610124073244606]}},{"type":"Feature","properties":{"NAME":"TILLAMOOK FIRE DISTRICT STATION 72"},"geometry":{"type":"Point","coordinates":[-123.80276863349633,45.38330202649663]}},{"type":"Feature","properties":{"NAME":"UPPER MCKENZIE RURAL FIRE PROTECTION DISTRICT"},"geometry":{"type":"Point","coordinates":[-122.15568890181304,44.17332400963246]}},{"type":"Feature","properties":{"NAME":"COBURG RURAL FIRE PROTECTION DISTRICT"},"geometry":{"type":"Point","coordinates":[-123.07237650163417,44.14170722805053]}},{"type":"Feature","properties":{"NAME":"BLUE RIVER VOLUNTEER FIRE DEPARTMENT"},"geometry":{"type":"Point","coordinates":[-122.33946368024745,44.15395179731039]}},{"type":"Feature","properties":{"NAME":"DEXTER RURAL FIRE PROTECTION DISTRICT"},"geometry":{"type":"Point","coordinates":[-122.82182790329765,43.91467320945873]}},{"type":"Feature","properties":{"NAME":"UMATILLA RURAL FIRE PROTECTION DISTRICT - HEADQUARTERS"},"geometry":{"type":"Point","coordinates":[-119.28826966617311,45.91733387265752]}},{"type":"Feature","properties":{"NAME":"MILTON-FREEWATER CITY FIRE DEPARTMENT STATION 1 - HEADQUARTERS"},"geometry":{"type":"Point","coordinates":[-118.39604934985945,45.941793269744636]}},{"type":"Feature","properties":{"NAME":"UMATILLA RURAL FIRE PROTECTION DISTRICT STATION 2"},"geometry":{"type":"Point","coordinates":[-119.34202893561795,45.91791411804693]}},{"type":"Feature","properties":{"NAME":"EAST UMATILLA COUNTY RURAL FIRE PROTECTION DISTRICT STATION 2"},"geometry":{"type":"Point","coordinates":[-118.55767945588451,45.7688134949536]}},{"type":"Feature","properties":{"NAME":"PENDLETON CITY FIRE AND AMBULANCE STATION 1"},"geometry":{"type":"Point","coordinates":[-118.79657893436416,45.67024424762459]}},{"type":"Feature","properties":{"NAME":"PLEASANT HILL VOLUNTEER FIRE PROTECTION DISTRICT STATION 2"},"geometry":{"type":"Point","coordinates":[-122.90428178504109,43.99804325208568]}},{"type":"Feature","properties":{"NAME":"EAST UMATILLA COUNTY RURAL FIRE PROTECTION DISTRICT STATION 1 - HEADQUARTERS"},"geometry":{"type":"Point","coordinates":[-118.42594959234414,45.813443291367975]}},{"type":"Feature","properties":{"NAME":"HERMISTON FIRE AND EMERGENCY SERVICES STATION 1 - HEADQUARTERS"},"geometry":{"type":"Point","coordinates":[-119.2908100227138,45.83850445948462]}},{"type":"Feature","properties":{"NAME":"MILTON-FREEWATER RURAL FIRE DISTRICT - EASTSIDE STATION"},"geometry":{"type":"Point","coordinates":[-118.37649916272325,45.96440348231986]}},{"type":"Feature","properties":{"NAME":"STANFIELD FIRE DEPARTMENT"},"geometry":{"type":"Point","coordinates":[-119.21964818390771,45.78083421570443]}},{"type":"Feature","properties":{"NAME":"HELIX RURAL FIRE PROTECTION DISTRICT 7 STATION 1 - HEADQUARTERS"},"geometry":{"type":"Point","coordinates":[-118.65534912216955,45.850363177364386]}},{"type":"Feature","properties":{"NAME":"EUGENE FIRE STATION 13 - UNIVERSITY STATION"},"geometry":{"type":"Point","coordinates":[-123.06944668128418,44.041326429798026]}},{"type":"Feature","properties":{"NAME":"EUGENE FIRE STATION 15 - SOUTH HILLS STATION"},"geometry":{"type":"Point","coordinates":[-123.09058149336235,44.02041746761707]}},{"type":"Feature","properties":{"NAME":"EUGENE FIRE STATION 12 - AIRPORT STATION"},"geometry":{"type":"Point","coordinates":[-123.21328290581444,44.11801700132313]}},{"type":"Feature","properties":{"NAME":"NESTUCCA RURAL FIRE PROTECTION DISTRICT STATION 82 - PACIFIC CITY"},"geometry":{"type":"Point","coordinates":[-123.96121342379361,45.20122907294905]}},{"type":"Feature","properties":{"NAME":"LANE COUNTY FIRE DISTRICT 1 STATION 11-3"},"geometry":{"type":"Point","coordinates":[-123.40656786657524,44.11686196464683]}},{"type":"Feature","properties":{"NAME":"LANE COUNTY FIRE DISTRICT 1 STATION 11-1"},"geometry":{"type":"Point","coordinates":[-123.58866781682055,44.03067483852209]}},{"type":"Feature","properties":{"NAME":"LANE COUNTY FIRE DISTRICT 1 STATION 18-5"},"geometry":{"type":"Point","coordinates":[-123.13677786681853,43.955462903198416]}},{"type":"Feature","properties":{"NAME":"LANE COUNTY FIRE DISTRICT 1 STATION 18-4"},"geometry":{"type":"Point","coordinates":[-123.21771784986848,43.93939841665031]}},{"type":"Feature","properties":{"NAME":"MOHAWK VALLEY RURAL FIRE DISTRICT STATION 3"},"geometry":{"type":"Point","coordinates":[-122.88527618095576,44.17920697520637]}},{"type":"Feature","properties":{"NAME":"MOHAWK VALLEY RURAL FIRE DISTRICT STATION 1"},"geometry":{"type":"Point","coordinates":[-122.87089382352485,44.17079298683155]}},{"type":"Feature","properties":{"NAME":"MOHAWK VALLEY RURAL FIRE DISTRICT STATION 4"},"geometry":{"type":"Point","coordinates":[-122.91946895933656,44.12736366619699]}},{"type":"Feature","properties":{"NAME":"MOHAWK VALLEY RURAL FIRE DISTRICT STATION 5"},"geometry":{"type":"Point","coordinates":[-122.95808888142092,44.10100404745356]}},{"type":"Feature","properties":{"NAME":"SANTA CLARA RURAL FIRE PROTECTION DISTRICT STATION 1"},"geometry":{"type":"Point","coordinates":[-123.1311472051752,44.10189045881901]}},{"type":"Feature","properties":{"NAME":"SANTA CLARA RURAL FIRE PROTECTION DISTRICT STATION 2"},"geometry":{"type":"Point","coordinates":[-123.13949029316632,44.122410580717286]}},{"type":"Feature","properties":{"NAME":"NEWPORT FIRE DEPARTMENT STATION 1"},"geometry":{"type":"Point","coordinates":[-124.05522101560744,44.6435240081372]}},{"type":"Feature","properties":{"NAME":"NESTUCCA RURAL FIRE PROTECTION DISTRICT STATION 85 - SANDLAKE"},"geometry":{"type":"Point","coordinates":[-123.92232052819183,45.303471063777714]}},{"type":"Feature","properties":{"NAME":"NESTUCCA RURAL FIRE PROTECTION DISTRICT STATION 84 - NESKOWIN"},"geometry":{"type":"Point","coordinates":[-123.97749997928722,45.10733143553621]}},{"type":"Feature","properties":{"NAME":"EUGENE FIRE STATION 10 - BAILEY HILL STATION"},"geometry":{"type":"Point","coordinates":[-123.15091143916617,44.03809036230686]}},{"type":"Feature","properties":{"NAME":"LANE COUNTY FIRE DISTRICT 1 STATION 18-1"},"geometry":{"type":"Point","coordinates":[-123.3361078462493,43.993767405478685]}},{"type":"Feature","properties":{"NAME":"SALEM FIRE DEPARTMENT STATION 7"},"geometry":{"type":"Point","coordinates":[-123.06007990015382,44.890024808277715]}},{"type":"Feature","properties":{"NAME":"HUBBARD RURAL FIRE PROTECTION DISTRICT"},"geometry":{"type":"Point","coordinates":[-122.80954432418477,45.17974295238766]}},{"type":"Feature","properties":{"NAME":"CLACKAMAS FIRE DISTRICT 1 STATION 15 - JOHN ADAMS"},"geometry":{"type":"Point","coordinates":[-122.60463831131175,45.35582377976488]}},{"type":"Feature","properties":{"NAME":"CLACKAMAS FIRE DISTRICT 1 STATION 16"},"geometry":{"type":"Point","coordinates":[-122.58185711737376,45.32682420714082]}},{"type":"Feature","properties":{"NAME":"SANDY RURAL FIRE PROTECTION DISTRICT 72 - MAIN STATION"},"geometry":{"type":"Point","coordinates":[-122.26368837421883,45.39660298212043]}},{"type":"Feature","properties":{"NAME":"COLTON RURAL FIRE PROTECTION DISTRICT 70 STATION 123"},"geometry":{"type":"Point","coordinates":[-122.36260830594644,45.205163007505426]}},{"type":"Feature","properties":{"NAME":"CANBY FIRE DISTRICT STATION 62"},"geometry":{"type":"Point","coordinates":[-122.68272863611837,45.264512873846314]}},{"type":"Feature","properties":{"NAME":"SANDY RURAL FIRE PROTECTION DISTRICT 72 - ROSLYN LAKE SUBSTATION"},"geometry":{"type":"Point","coordinates":[-122.23988798679693,45.429412001533294]}},{"type":"Feature","properties":{"NAME":"SANDY RURAL FIRE PROTECTION DISTRICT 72 - DOVER SUBSTATION"},"geometry":{"type":"Point","coordinates":[-122.2357783640984,45.345643832239915]}},{"type":"Feature","properties":{"NAME":"GLADSTONE FIRE DEPARTMENT"},"geometry":{"type":"Point","coordinates":[-122.59441151284192,45.3806946222527]}},{"type":"Feature","properties":{"NAME":"BORING FIRE PROTECTION DISTRICT 59 STATION 149"},"geometry":{"type":"Point","coordinates":[-122.45559015098996,45.41724307294094]}},{"type":"Feature","properties":{"NAME":"BORING FIRE PROTECTION DISTRICT 59 STATION 148"},"geometry":{"type":"Point","coordinates":[-122.33134941806505,45.36841351211876]}},{"type":"Feature","properties":{"NAME":"ESTACADA RURAL FIRE DISTRICT 69 STATION 115"},"geometry":{"type":"Point","coordinates":[-122.24488766980012,45.29850385119875]}},{"type":"Feature","properties":{"NAME":"TURNER FIRE DEPARTMENT"},"geometry":{"type":"Point","coordinates":[-122.9535990179586,44.845122741516136]}},{"type":"Feature","properties":{"NAME":"SALEM FIRE DEPARTMENT STATION 1 - HEADQUARTERS"},"geometry":{"type":"Point","coordinates":[-123.04046991643678,44.9377942344196]}},{"type":"Feature","properties":{"NAME":"KNAPPA SVENSEN RURAL FIRE PROTECTION DEPARTMENT STATION 2"},"geometry":{"type":"Point","coordinates":[-123.65724870123529,46.166803372147626]}},{"type":"Feature","properties":{"NAME":"ELSIE-VINEMAPLE RURAL FIRE PROTECTION DISTRICT 11"},"geometry":{"type":"Point","coordinates":[-123.54493791118057,45.85607464454486]}},{"type":"Feature","properties":{"NAME":"GEARHART VOLUNTEER FIRE DEPARTMENT"},"geometry":{"type":"Point","coordinates":[-123.9194502846219,46.024403319104486]}},{"type":"Feature","properties":{"NAME":"HAMLET VOLUNTEER FIRE DEPARTMENT - NECANICUM STATION"},"geometry":{"type":"Point","coordinates":[-123.78855773062035,45.90707384736308]}},{"type":"Feature","properties":{"NAME":"POLK COUNTY FIRE DISTRICT 1 STATION 90"},"geometry":{"type":"Point","coordinates":[-123.21609811867903,44.851802889867955]}},{"type":"Feature","properties":{"NAME":"LEWIS AND CLARK RURAL FIRE DEPARTMENT"},"geometry":{"type":"Point","coordinates":[-123.85325890899023,46.15234281167787]}},{"type":"Feature","properties":{"NAME":"KNAPPA SVENSEN RURAL FIRE PROTECTION DEPARTMENT"},"geometry":{"type":"Point","coordinates":[-123.58370799660835,46.16745285842068]}},{"type":"Feature","properties":{"NAME":"JOHN DAY RURAL FIRE PROTECTION DEPARTMENT"},"geometry":{"type":"Point","coordinates":[-123.74874889176773,46.16611244421711]}},{"type":"Feature","properties":{"NAME":"DALLAS FIRE DEPARTMENT"},"geometry":{"type":"Point","coordinates":[-123.31427808545503,44.92023209606336]}},{"type":"Feature","properties":{"NAME":"SALEM FIRE DEPARTMENT STATION 5"},"geometry":{"type":"Point","coordinates":[-123.06520872658753,44.94994254374305]}},{"type":"Feature","properties":{"NAME":"WEST VALLEY FIRE DISTRICT - SUBSTATION"},"geometry":{"type":"Point","coordinates":[-123.60890842245163,45.060082959114744]}},{"type":"Feature","properties":{"NAME":"AMITY FIRE DISTRICT"},"geometry":{"type":"Point","coordinates":[-123.2553481272406,45.042262920521196]}},{"type":"Feature","properties":{"NAME":"SALEM FIRE DEPARTMENT STATION 6"},"geometry":{"type":"Point","coordinates":[-123.00929958307329,44.91371606627432]}},{"type":"Feature","properties":{"NAME":"SILVERTON FIRE DISTRICT - HEADQUARTERS"},"geometry":{"type":"Point","coordinates":[-122.79627937774869,45.0049725696974]}},{"type":"Feature","properties":{"NAME":"MARION COUNTY FIRE DISTRICT 1 STATION 1 - FOUR CORNERS"},"geometry":{"type":"Point","coordinates":[-122.95865113346866,44.93215396994062]}},{"type":"Feature","properties":{"NAME":"AURORA RURAL FIRE PROTECTION DISTRICT - DONALD"},"geometry":{"type":"Point","coordinates":[-122.84109942767317,45.22180335794457]}},{"type":"Feature","properties":{"NAME":"SCAPPOOSE RURAL FIRE PROTECTION DISTRICT"},"geometry":{"type":"Point","coordinates":[-122.87910037718696,45.76138491146181]}},{"type":"Feature","properties":{"NAME":"SILVERTON FIRE DISTRICT STATION 9 - SCOTTS MILLS"},"geometry":{"type":"Point","coordinates":[-122.62080821137727,44.99289548119666]}},{"type":"Feature","properties":{"NAME":"SILVERTON FIRE DISTRICT STATION 8 - SCOTTS MILLS"},"geometry":{"type":"Point","coordinates":[-122.67110821649366,45.04367341901932]}},{"type":"Feature","properties":{"NAME":"SILVERTON RURAL FIRE PROTECTION DISTRICT VICTOR POINT STATION 2"},"geometry":{"type":"Point","coordinates":[-122.78906817256379,44.925683906176914]}},{"type":"Feature","properties":{"NAME":"COQUILLE FIRE AND RESCUE"},"geometry":{"type":"Point","coordinates":[-124.18974243380296,43.176665595151974]}},{"type":"Feature","properties":{"NAME":"COOS BAY FIRE DEPARTMENT - EMPIRE STATION"},"geometry":{"type":"Point","coordinates":[-124.2753728657168,43.39113647854746]}},{"type":"Feature","properties":{"NAME":"COOS BAY FIRE DEPARTMENT - CENTRAL STATION 1"},"geometry":{"type":"Point","coordinates":[-124.2157275608747,43.367470310921775]}},{"type":"Feature","properties":{"NAME":"COOS BAY FIRE DEPARTMENT - EASTSIDE STATION"},"geometry":{"type":"Point","coordinates":[-124.19601545968975,43.36484761084618]}},{"type":"Feature","properties":{"NAME":"NESTUCCA RURAL FIRE PROTECTION DISTRICT STATION 86 - BLAINE"},"geometry":{"type":"Point","coordinates":[-123.693469364159,45.26291193865857]}},{"type":"Feature","properties":{"NAME":"KNAPPA-SVENSEN-BURNSIDE FIRE DISTRICT - BROWNSMEAD STATION 22B"},"geometry":{"type":"Point","coordinates":[-123.5399053823479,46.21008351562307]}},